id_corretor,id_visita,sk_house,price,predicted_price_70,partner_3p_supply,house_address,house_zipcode,house_neighborhood,house_city,house_lat,house_lng,floor,house_bathrooms,house_bedrooms,house_suites,house_garages,house_type,house_total_area,sk_condo,name,days_published,os,vb,last_price_down,previous_price_variation,date,monday_status,sale_price_agreed,similar 1 – endereço,similar 1 – foto,similar 1 – infos,similar 1 – tags
123,,892763734,350000,343480,,Rua Francisco Teodoro,13035-430,Vila Industrial,Campinas,-22.911094,-47.061613,360000,1,2,0,1,Apartamento,52,74680,892763734-911.424654197116230.jpg,673,0,2,2024-11-03,-0.0667,,,,,,,
123,,892763858,270000,259270,,Rua José de Alencar,13013-040,Centro,Campinas,-22.910589,-47.059492,250000,1,1,0,1,Apartamento,97,80782,892763858-485.527391830435DSC5364.jpg,1281,0,0,2025-01-13,-0.0182,,,,,,,
123,,892764270,2500000,2335642,,Rua Babaçú,13092-564,Jardim das Palmeiras,Campinas,-22.900096,-47.022155,2600000,6,4,4,4,CasaCondominio,384,33280,892764270-426.66002383932545villaggiodelhipica6.jpg,38,0,0,2025-06-05,-0.0385,,,,,,,
123,,892766249,785000,753262,,Rua Castilho,04568-010,Brooklin Paulista,São Paulo,-23.6139429,-46.6909358,800000,1,1,0,1,Apartamento,47,95517,892766249-246.10146695145073StelaMaris.jpg,639,0,6,2025-03-28,-0.0765,,,,,,,
123,,892766755,1300000,833311,,Rua Leopoldo Couto de Magalhães Júnior,04542-000,Itaim Bibi,São Paulo,-23.5875873,-46.6777803,880000,1,1,1,1,Apartamento,50,886,892766755-670.1563555014577DSC0002.jpg,1884,0,5,2024-05-10,-0.0256,,,,,,,
123,,892767173,2730000,2552480,,R. Pernambuco,01240-020,Higienópolis,São Paulo,-23.5429001,-46.6613998,2200800,4,3,1,2,Apartamento,240,9829,892767173-548.6472489979337DSC01140.jpg,65,0,0,2025-06-06,-0.0036,,,,,,,
123,,892767402,840000,1062921,,Av Sao Gabriel,01435-900,Jardim Paulista,São Paulo,-23.581108,-46.670372,1000000,2,2,1,0,Apartamento,97,17344,892767402-71.07303300892443IMG7548.jpg,1996,0,6,2025-05-16,-0.0059,,,,,,,
123,,892768532,610000,614901,,Rua Nhu Guaçu,04625-000,Nova Piraju,São Paulo,-23.628032,-46.664719,610000,1,2,0,1,Apartamento,70,74208,892768532-562.0165269522007685323.jpg,51,0,0,,,,,,,,,
123,,892769477,990000,579699,,Rua Leoncio de Carvalho,04003-010,Paraíso,São Paulo,-23.57139,-46.646838,990000,1,2,0,2,Apartamento,65,11323,892769477-984.6027867713761DSC2790.JPG,683,0,0,,,,,,,,,
123,,892770409,1700000,1034315,,Rua Manoel da Nobrega,04001-001,Jardim Paulista,São Paulo,-23.57556,-46.65533,1000000,3,3,1,1,Apartamento,120,17753,892770409-871.0067979956629ManoeldaNobrega10881.jpg,4,0,0,,,,,,,,,
123,,892771367,766000,502366,,Rua Herculano de Freitas,01308-020,Bela Vista,São Paulo,-23.5556347,-46.653766,766000,1,1,0,1,Apartamento,45,960,892771367-623.968082749992663543.jpg,227,0,0,,,,,,,,,
123,,892772168,2090000,2308041,,Rua Doutor Gabriel dos Santos,01231-011,Higienópolis,São Paulo,-23.537177,-46.659744,2500000,4,3,3,3,Apartamento,200,91879,892772168-15.96598070332022761721.jpg,493,0,3,2025-06-03,-0.0048,,,,,,,
123,,892773652,570000,595712,,Rua Michigan,04566-000,Cidade Monções,São Paulo,-23.61512,-46.685693,570000,1,1,0,1,Apartamento,33,14373,892773652-167.61075210403763xx.jpg,91,0,0,,,,,,,,,
123,,892773808,1275608,1070020,,Rua Haddock Lobo,01414-001,Vila Congonhas,São Paulo,-23.6275997,-46.6618004,1275608,1,3,0,1,Apartamento,158,97966,892773808-223.588565013900971993.jpg,130,0,1,,,,,,,,,
123,,892774390,750000,697858,,Alameda Anapurus,04087-006,Indianópolis,São Paulo,-23.6125696,-46.6632526,950000,1,2,0,1,Apartamento,70,14305,892774390-16.07634215621012DSC2407.jpg,1215,0,3,2024-12-14,-0.0625,,,,,,,
123,,892774451,495000,417541,,Rua Paim,01306-010,Bela Vista,São Paulo,-23.554023,-46.6503191,520000,1,1,0,1,StudioOuKitchenette,32,97032,892774451-658.1235815129285DSC0004.jpg,680,0,1,2025-02-08,-0.0481,,,,,,,
123,,892774511,740000,457126,,Alameda Campinas,01404-001,Jardim Paulista,São Paulo,-23.567145,-46.654306,740000,1,1,0,1,Apartamento,30,17513,892774511-513.711712157436577051.jpg,234,0,0,,,,,,,,,
123,,892774670,2500000,1451830,,Rua Baronesa de Itu,01231-001,Higienópolis,São Paulo,-23.539528,-46.657295,2500000,3,3,1,1,Apartamento,170,5773,892774670-294.4439666942656777982.jpg,92,0,0,,,,,,,,,
123,,892774797,407108,517325,,Avenida Santo Amaro,04555-003,Brooklin Paulista,São Paulo,-23.622747,-46.684581,492108,1,1,0,0,Apartamento,75,42,892774797-483.39110934466356IMG1121.jpg,233,0,4,2025-05-06,-0.0468,,,,,,,
123,,892774964,590000,660649,,Rua Pintassilgo,04514-031,Vila Uberabinha,São Paulo,-23.603712,-46.673612,855000,1,1,0,1,Apartamento,45,83218,892774964-869.9765639787346IMG6456.jpg,322,0,1,2025-05-06,-0.0407,,,,,,,
456,,892776125,3309000,2775563,,Rua Realengo,05451-030,Vila Madalena,São Paulo,-23.543284,-46.703728,3300000,5,4,4,3,Apartamento,273,11113,892776125-636.4983300806751MG2991.jpg,1386,0,10,2025-06-09,-0.0075,,,,,,,
456,,892776894,3050000,1627374,,Praça Buritama,01450-100,Jardim Europa,São Paulo,-23.577986,-46.686065,1600000,2,2,0,1,Apartamento,120,12303,892776894-825.0656041176276e474861b52afcbc4712489ee5bd46e4d.jpg,143,0,2,,,,,,,,,
456,,892777233,580000,465363,,Praça Marechal Deodoro,01150-010,Santa Cecília,São Paulo,-23.533192,-46.656175,480000,1,2,0,0,Apartamento,76,14044,892777233-343.2867904624732SoPaulo2013082300172.jpg,77,0,0,,,,,,,,,
456,,892777516,780000,715064,,Rua Adalberto Kemeny,01139-050,Parque Industrial Tomas Edson,São Paulo,-23.5200236,-46.675909,750000,2,2,1,1,Apartamento,67,153738,892777516-545.3537089966347DSC0003.jpg,1708,0,1,2022-08-05,-0.025,,,,,,,
456,,892777527,1045000,1032373,,Rua Cardoso de Almeida,05013-001,Perdizes,São Paulo,-23.539033,-46.669187,1045000,2,3,1,1,Apartamento,130,9208,892777527-631.0542338976127DSC0122.jpg,168,0,11,,,,,,,,,
456,,892777746,1375000,1054707,,Rua Cristiano Viana,05411-001,Cerqueira César,São Paulo,-23.556945,-46.678863,1400000,2,2,1,2,Apartamento,65,150847,892777746-546.9063514411157IMG0532Copy.jpg,146,0,0,2025-06-05,-0.0179,,,,,,,
456,,892778276,1190000,871858,,Rua Doutor Augusto de Miranda,05026-000,Vila Pompéia,São Paulo,-23.530522,-46.689413,850000,2,2,1,2,Apartamento,77,8788,892778276-111.78755654731543DSC07063.jpg,1463,0,3,2021-10-09,-0.0106,,,,,,,
456,,892778348,1200000,968736,,Rua Amauri,01448-000,Jardim Europa,São Paulo,-23.58125,-46.683045,1200000,1,1,0,1,Apartamento,70,40130,892778348-798.59381276970561Sala2.jpg,32,0,0,,,,,,,,,
456,,892778561,1250000,913586,,Rua Bergamota,05468-000,Alto da Lapa,São Paulo,-23.538559,-46.71731,1250000,3,2,1,2,Apartamento,104,14107,892778561-646.9274038903274DSC0581.jpg,176,0,1,,,,,,,,,
456,,892779725,420000,485458,,Rua Nazaré Rezek Farah,04367-050,Vila Santa Catarina,São Paulo,-23.650578,-46.667083,420000,1,2,0,2,Apartamento,65,2642,892779725-82.0997450354375DSC0048.jpg,1687,0,18,,,,,,,,,
456,,892779883,1168600,1168767,,Rua Abílio Soares,04005-002,Paraíso,São Paulo,-23.5753419,-46.6475857,1200000,3,3,1,1,Apartamento,107,26409,892779883-972.267616630805811.jpg,665,0,6,2024-07-11,-0.0262,,,,,,,
456,,892781251,210000,220586,,Rua Marechal Deodoro,13010-300,Centro,Campinas,-22.9041109,-47.0673306,210000,1,1,0,1,Apartamento,60,14711,892781251-627.1769850146512DSC5118.jpg,653,0,24,,,,,,,,,
456,,892781495,850000,747690,,Avenida Portugal,04559-002,Brooklin Paulista,São Paulo,-23.618835,-46.685372,850000,1,1,1,1,Apartamento,54,21439,892781495-667.7462266521364DSC0060.jpg,830,0,2,2024-05-16,-0.0147,,,,,,,
456,,892781744,259000,218367,,Rua Saldanha Marinho,13013-080,Centro,Campinas,-22.9008727,-47.0703258,279000,1,1,0,1,Apartamento,56,13862,892781744-656.7423467785801IMG1375.jpg,435,0,1,2024-10-21,-0.0418,,,,,,,
456,,892781869,445000,510563,,Alameda Lorena,01424-001,Jardim Paulista,São Paulo,-23.568203,-46.661034,800000,1,1,0,1,Apartamento,40,524,892781869-786.2094659909234DSC0137.jpg,1222,0,8,2025-05-12,-0.0111,,,,,,,
456,,892782284,1400000,1111865,,Rua Peixoto Gomide,01409-002,Jardim Paulista,São Paulo,-23.5677624,-46.6646574,1500000,2,2,0,0,Apartamento,83,16489,892782284-464.6290875710534DSC0664.jpg,190,0,0,2025-06-05,-0.0175,,,,,,,
456,,892782399,355000,421093,,Rua Orlando Fagnani,13092-054,Jardim Planalto,Campinas,-22.8943559,-47.046153,420000,1,1,1,1,Apartamento,62,91569,892782399-499.3726017175888DSC0002.JPG,227,0,0,2025-05-12,-0.0274,,,,,,,
456,,892782728,600000,609565,,Rua Elisiário,03306-080,Cidade Mãe do Céu,São Paulo,-23.5482888,-46.5750692,650000,2,3,0,2,Apartamento,79,231676,892782728-539.7771722336466QuintoAndar2.jpg,1675,0,5,2024-10-11,-0.0339,,,,,,,
456,,892782865,1550000,1498531,,Rua Quata,04546-906,Vila Olimpia,São Paulo,-23.5969871,-46.6803752,1470000,3,3,1,2,Apartamento,132,4026,892782865-13.307565567463818DSC0021.jpg,1549,0,14,2025-06-10,-0.0159,,,,,,,
456,,892783175,530000,527896,,Rua Arminda Fernandes de Almeida,04117-170,Vila Mariana,São Paulo,-23.5874926,-46.6265361,600000,1,1,1,1,Apartamento,42,5735,892783175-801.8267804787031IMG8389.jpg,1105,0,11,2025-05-09,-0.0364,,,,,,,
456,,892783334,2090000,2171889,,Rua Doutor Brasílio Machado,01230-010,Santa Cecília,São Paulo,-23.537915,-46.6594635,2550000,4,4,2,2,Apartamento,222,42290,892783334-517.3342204920167MG3078.jpg,763,0,2,2024-06-14,-0.1106,,,,,,,
456,,892783487,2300000,1664891,,Rua Caravelas,04012-060,Vila Mariana,São Paulo,-23.5818397,-46.6474249,2300000,4,3,1,4,Apartamento,120,460,892783487-962.8270107690347IMG6341.jpg,1320,0,0,2025-02-12,-0.0612,,,,,,,
789,,892784071,1180000,1079279,,Rua Jesuino Arruda,04532-082,Itaim Bibi,São Paulo,-23.5814915,-46.6729889,1350000,2,2,0,1,Apartamento,92,95451,892784071-141.19312841877874QuintoAndar154.jpg,1562,0,27,2024-02-01,-0.0182,,,,,,,
789,,892784231,900000,995728,,Rua George Ohm,04576-000,Cidade Monções,São Paulo,-23.6114234,-46.6930093,1100000,1,1,1,1,Apartamento,53,9314,892784231-866.7943614697441DSC0009.jpg,213,1,9,2025-02-23,-0.1,2025-06-08,Propostas Ongoing,800000,,,,
789,,892784395,700000,678042,,Rua do Estilo Barroco,04709-010,Chácara Santo Antônio (zona Sul),São Paulo,-23.6306556,-46.6920879,580000,2,2,0,1,Apartamento,90,151023,892784395-196.0541495066971DSC00292.jpg,1803,0,59,2025-04-04,-0.0345,,,,,,,
789,,892784397,429000,400926,,Rua Helvétia,01215-010,Campos Elíseos,São Paulo,-23.5380058,-46.6490746,429000,1,2,0,0,Apartamento,69,15072,892784397-391.85934711614345MG8212.jpg,24,0,0,,,,,,,,,
789,,892784493,420000,423811,,Avenida Doutor Moraes Salles,13010-002,Centro,Campinas,-22.9059734,-47.048214,420000,2,3,0,1,Apartamento,105,13988,892784493-342.35960037988656DSC3527.jpg,129,0,2,,,,,,,,,
789,,892784727,274000,305912,,Rua Manoel Dutra,01328-010,Bela Vista,São Paulo,-23.5557001,-46.6490443,270000,1,1,0,0,StudioOuKitchenette,30,8061,892784727-338.75121596751256MG3562.jpg,1558,2,16,2024-07-17,-0.0179,2023-07-14,Canceladas em negociação,180000,,,,
789,,892784913,330000,365211,,Rua Genebra,01316-010,Bela Vista,São Paulo,-23.5529967,-46.6398409,400000,1,1,1,1,Apartamento,35,95322,892784913-483.5153524064536MG9193.jpg,597,0,3,2024-08-01,-0.0294,,,,,,,
789,,892785378,2300000,2290621,,Rua Edson,04618-030,Campo Belo,São Paulo,-23.6177803,-46.6806388,1050000,4,3,3,3,Apartamento,200,11111,892785378-956.3817550722354DSC0088.jpg,4,0,0,,,,,,,,,
789,,892785591,336000,325803,,Rua Francisco Luís de Souza Júnior,05037-000,Água Branca,São Paulo,-23.513213,-46.6892847,361000,1,2,0,0,Apartamento,44,15187,892785591-753.846488681324MG0322.jpg,420,0,0,2024-10-07,-0.0434,,,,,,,
789,,892785808,530000,505226,,Avenida Portugal,04559-002,Brooklin Paulista,São Paulo,-23.6189355,-46.6854162,480000,1,1,0,1,StudioOuKitchenette,32,21439,892785808-109.30499143576333DSC1116.JPG,135,0,2,,,,,,,,,
789,,892785809,580000,487310,,Avenida Portugal,04559-002,Brooklin Paulista,São Paulo,-23.6188627,-46.6853314,450000,1,1,0,1,StudioOuKitchenette,31,21439,892785809-937.439600006762QuintoAndar037.jpg,135,0,1,,,,,,,,,
789,,892786256,795000,698543,,Avenida Santo Amaro,04505-001,Vila Nova Conceição,São Paulo,-23.5884037,-46.6716157,600000,1,1,0,0,Apartamento,73,14073,892786256-535.5435627218341862561.jpg,1428,0,0,2024-09-03,-0.1067,,,,,,,
789,,892786260,645000,601322,,Marquês de Paranagua,01303-300,Consolação,São Paulo,-23.5487756,-46.6505448,680000,1,2,0,1,Apartamento,67,16671,892786260-61.01869611432831DSC0002cpia.jpg,481,0,3,2025-05-23,-0.0301,,,,,,,
789,,892786556,200000,157564,,Rua Helena Zerrener,01512-020,Liberdade,São Paulo,-23.5533447,-46.6285067,250000,1,1,1,0,StudioOuKitchenette,32,15134,892786556-436.52748616985383IMG9492.jpg,597,0,6,2024-11-19,-0.0357,,,,,,,
789,,892786561,450000,413696,,Rua Santo Antônio,01314-000,Bela Vista,São Paulo,-23.551787,-46.6453006,450000,1,1,0,1,StudioOuKitchenette,35,149925,892786561-739.1454562770978MG8585.jpg,153,0,1,,,,,,,,,
789,,892786663,1750000,1894128,,Rua João Luís Vives,04116-080,Jardim Vila Mariana,São Paulo,-23.5936746,-46.6271125,1900000,4,3,3,4,Apartamento,248,8671,892786663-710.9156894169494IMG9800.jpg,1945,0,3,2020-08-29,-0.0789,,,,,,,
789,,892786956,2800000,2143062,,Rua Padre João Manuel,01411-000,Cerqueira César,São Paulo,-23.5621103,-46.66276,2800000,2,3,1,1,Apartamento,143,12649,892786956-146.72057551576933IMG7772.jpg,8,0,0,,,,,,,,,
789,,892786996,1325000,844527,,Rua Inhambú,04520-011,Vila Uberabinha,São Paulo,-23.6023785,-46.6696228,1350000,2,3,1,1,Apartamento,65,8223,892786996-857.653660122144QuintoAndar184.jpg,137,0,0,2025-06-12,-0.0185,,,,,,,
789,,892787133,890000,685329,,Rua João Ramalho,05008-001,Perdizes,São Paulo,-23.5381161,-46.6696464,950000,2,1,1,1,Apartamento,75,7681,892787133-28.318482784486566MG5893.jpg,1691,0,27,2025-05-19,-0.0918,,,,,,,
789,,892787912,1325000,708135,,Rua Fidêncio Ramos,04551-010,Vila Olímpia,São Paulo,-23.5944206,-46.6843662,950000,1,1,1,1,Apartamento,52,711,892787912-646.188799219893122082016DSC0003.jpg,916,0,7,2024-08-19,-0.0363,,,,,,,
789,,892787943,890000,753708,,Rua Tiangua,04363-100,Vila Mascote,São Paulo,-23.6470147,-46.6641085,730000,2,3,1,3,Apartamento,95,153279,892787943-338.9331265464350620082016DSC00762.jpg,1369,0,10,2025-02-17,-0.022,,,,,,,
789,,892788324,1114000,1105330,,Rua Loefgren,04040-030,Vila Clementino,São Paulo,-23.5997543,-46.6301131,1114000,2,3,1,2,Apartamento,108,48252,892788324-85.7891615930303DSC0001.JPG,17,0,0,,,,,,,,,
789,,892788624,530000,555543,,Avenida Damasceno Vieira,04363-040,Vila Mascote,São Paulo,-23.6467793,-46.6658473,500000,3,2,1,1,Apartamento,74,10524,892788624-428.1305221305742QuintoAndar228.jpg,1357,0,5,2021-09-28,-0.02,,,,,,,
789,,892788736,420000,404191,,Avenida Jamaris,04078-002,Planalto Paulista,São Paulo,-23.6098282,-46.6553355,420000,1,1,0,1,Apartamento,32,93040,892788736-196.8011376926896QuintoAndar001.jpg,81,0,1,,,,,,,,,
789,,892789164,650000,646077,,Rua Professor Sousa Barros,04307-100,Vila Guarani (z Sul),São Paulo,-23.6283961,-46.6430827,700000,1,2,0,1,Apartamento,68,3733,892789164-261.8504885457622321092016DSC0109.jpg,521,0,2,2025-03-24,-0.0441,,,,,,,
789,,892789389,310000,273667,,Avenida Ipiranga,13041-720,Ponte Preta,Campinas,-22.9144626,-47.0584172,310000,2,3,1,1,Apartamento,60,48912,892789389-637.407017042957289389001.jpg,2,0,0,,,,,,,,,
789,,892789761,1249000,1310694,,Rua Pedro Pomponazzi,04115-000,Jardim Vila Mariana,São Paulo,-23.5906086,-46.6222399,1100000,4,3,1,3,Apartamento,120,175662,892789761-128.27868989870862IMG6046.jpg,1164,1,10,,,2023-02-15,Canceladas em negociação,1000000,,,,
789,,892790108,550000,572871,,Rua Tonelero,05056-000,Vila Ipojuca,São Paulo,-23.5309587,-46.7042658,650000,1,2,0,1,Apartamento,70,6054,892790108-134.82985517111555THI9894cpia.jpg,732,0,1,2023-11-01,-0.0517,,,,,,,
789,,892790128,275000,263995,,Rua dos Buritis,04321-001,Vila Parque Jabaquara,São Paulo,-23.6478007,-46.6441973,350000,1,1,0,1,Apartamento,42,5062,892790128-438.2673578771724IMG1287.jpg,1393,1,28,2025-05-14,-0.0108,2024-10-23,Canceladas em negociação,294000,,,,
789,,892790284,220000,199259,,Praça Carlos Gomes,01501-040,Centro,São Paulo,-23.553204,-46.635558,280000,1,1,0,0,StudioOuKitchenette,25,14708,892790284-521.7586674860939MG5790.jpg,807,0,5,2024-04-24,-0.0526,,,,,,,
789,,892790519,705000,773027,,Rua Aibi,05054-010,Vila Ipojuca,São Paulo,-23.5384856,-46.7038472,910000,2,3,1,1,Apartamento,88,14338,892790519-914.1898314494174MG7307.jpg,1779,1,17,2025-05-21,-0.0276,2024-08-31,Canceladas em negociação,790000,,,,
789,,892790690,650000,655159,,Rua Voluntários da Pátria,02401-200,Santana,São Paulo,-23.493377,-46.6263236,790000,2,3,1,2,Apartamento,90,13197,892790690-695.5689743537446SCM4867.JPG,1180,0,0,2025-06-09,-0.037,,,,,,,
789,,892791016,310000,205919,,Viaduto Dona Paulina,01501-020,Centro,São Paulo,-23.5518313,-46.6357049,310000,1,1,0,0,StudioOuKitchenette,30,14383,892791016-148.96747937442257MG6704.JPG,97,0,0,,,,,,,,,
789,,892791018,304000,226601,,Viaduto Dona Paulina,01501-020,Centro,São Paulo,-23.5518313,-46.6357049,304000,1,1,0,0,StudioOuKitchenette,30,14383,892791018-232.7391462660826910181de23.jpg,100,0,0,,,,,,,,,
789,,892791378,950000,1007404,,Rua Francisca Júlia,02403-010,Santana,São Paulo,-23.4939096,-46.6278991,1200000,2,3,1,3,Apartamento,125,1652,892791378-659.0478926744754SCM7353.JPG,633,0,1,2025-06-10,-0.0256,,,,,,,
789,,892791475,538500,372473,,Rua Coronel Luís Barroso,04750-030,Santo Amaro,São Paulo,-23.6453107,-46.7036605,430000,1,1,1,1,StudioOuKitchenette,31,150045,892791475-809.544788145301810112016DSC0135.jpg,1730,0,4,2024-01-17,-0.0126,,,,,,,
789,,892791518,800000,430576,,Avenida São João,01036-100,República,São Paulo,-23.5414016,-46.6419448,600000,1,1,0,0,Apartamento,90,60561,892791518-761.774781666864THI4283.jpg,1842,0,8,2024-07-02,-0.05,,,,,,,
789,,892791812,215000,216334,,Rua Santo Amaro,01315-001,Bela Vista,São Paulo,-23.5527394,-46.6405468,260000,1,1,0,0,StudioOuKitchenette,30,14407,892791812-555.4935584773026MG1606.JPG,1012,0,7,2024-04-08,-0.093,,,,,,,
789,,892791848,650000,550213,,Rua Taipas,09560-200,Santa Maria,São Caetano do Sul,-23.6237713,-46.555083,650000,2,2,1,3,Apartamento,69,15905,892791848-804.1590603203714IMG0867.jpg,106,0,4,,,,,,,,,
789,,892792085,2150000,1269470,,Rua Henrique Monteiro,05423-020,Pinheiros,São Paulo,-23.5697433,-46.6901052,1600000,2,3,1,1,Apartamento,117,88688,892792085-171.79719245336156THI6222.jpg,1648,0,3,2025-06-03,-0.0115,,,,,,,
789,,892792183,534000,565487,,Rua Carneiro da Cunha,04144-001,Vila da Saúde,São Paulo,-23.6227056,-46.6364697,615000,1,3,0,1,Apartamento,70,16570,892792183-43.91561501599428321832116544.jpg,137,1,22,2025-06-06,-0.0291,2025-03-31,Canceladas em negociação,506000,,,,
789,,892792352,650000,724788,,Rua Francisco Cruz,04117-091,Vila Mariana,São Paulo,-23.5908174,-46.6336338,650000,1,1,1,1,Apartamento,51,27549,892792352-744.4888819083073ME15b33921843fd9812b0352045b1e8bd5.jpg,81,0,16,,,,,,,,,
789,,892792582,510000,357127,,Rua Irmã Maria Inês,13070-030,Jardim Chapadão,Campinas,-22.8935569,-47.0793482,510000,1,2,0,1,Apartamento,57,69820,892792582-178.30442787254265DSC2344.jpg,114,0,1,,,,,,,,,
789,,892792702,930000,1144540,,Rua Marcus Pereira,05642-020,Vila Suzana,São Paulo,-23.6228421,-46.7359529,1300000,3,3,2,3,Apartamento,244,151840,892792702-104.7521322585101IMG0808.JPG,1837,0,7,2024-03-27,-0.07,,,,,,,
789,,892792910,395000,373316,,Rua Jupi,04755-050,Santo Amaro,São Paulo,-23.6466372,-46.7126114,380000,1,2,0,1,Apartamento,48,15276,892792910-42.95657614376125QuintoAndar058.jpg,238,2,8,2024-11-15,-0.0366,2024-10-21,Canceladas em negociação,350000,,,,
789,,892793062,660000,688992,,Rua José Ramon Urtiza,05717-270,Vila Andrade,São Paulo,-23.6371843,-46.7364518,650000,3,3,1,3,Apartamento,132,5175,892793062-437.62418266591993IMG6284.jpg,40,0,0,,,,,,,,,
789,,892793180,800000,706821,,Rua Diana,05019-000,Perdizes,São Paulo,-23.5324037,-46.6802883,800000,2,1,1,2,Apartamento,65,5747,892793180-713.4710092533535THI9283.jpg,1313,0,7,2024-05-02,-0.0318,,,,,,,
789,,892793442,642627,634589,,Rua Teodoro Sampaio,05406-000,Pinheiros,São Paulo,-23.5562827,-46.6755133,642627,1,1,0,1,Apartamento,45,11639,892793442-256.6097471566932MG0545.jpg,17,0,0,,,,,,,,,
789,,892793443,612572,603754,,Rua Teodoro Sampaio,05406-000,Pinheiros,São Paulo,-23.5562827,-46.6755133,612572,1,1,0,1,Apartamento,45,11639,892793443-376.5657283575388MG0573.jpg,17,0,0,,,,,,,,,
789,,892793643,1500000,1060638,,Rua Desembargador Aragão,04102-010,Vila Mariana,São Paulo,-23.5934416,-46.6305955,900000,2,3,1,2,Apartamento,100,6631,892793643-938.5512810486234MG0905.jpg,1453,1,30,2025-03-14,-0.4,2024-04-14,Canceladas em negociação,850000,,,,
789,,892793977,890000,872851,,Rua Ribeiro do Vale,04568-000,Brooklin Paulista,São Paulo,-23.6143711,-46.6893436,950000,2,2,1,1,Apartamento,60,150532,892793977-349.02272778273436IMG74841.jpg,872,0,7,2024-01-31,-0.0299,,,,,,,
789,,892794223,540000,513758,,Rua Safira,01532-010,Aclimação,São Paulo,-23.5719297,-46.6314593,580000,1,1,1,1,Apartamento,40,14625,892794223-897.182212921826613012017DSC0133.jpg,744,0,0,2025-06-12,-0.0182,,,,,,,
789,,892794426,690000,852231,,Rua Jacintos,04049-050,Mirandópolis,São Paulo,-23.6072124,-46.6421377,825000,2,2,1,1,Apartamento,96,19281,892794426-174.315331422393294426.jpg,1716,0,15,2024-09-10,-0.08,,,,,,,
789,,892794516,585000,586335,,Rua Consolação,01301-100,Consolação,São Paulo,-23.5510254,-46.6553085,650000,1,1,0,1,StudioOuKitchenette,35,96176,892794516-162.0576311229064DSC01140.jpg,198,0,4,2025-06-05,-0.0217,,,,,,,
789,,892794658,553000,624632,,Avenida Santo Amaro,04556-200,Brooklin Paulista,São Paulo,-23.6120494,-46.6776531,648000,1,1,1,1,StudioOuKitchenette,33,96305,892794658-823.0950061777958MG5922.jpg,192,0,11,2025-05-09,-0.0264,,,,,,,
789,,892794754,980000,945114,,Rua Doutor James Ferraz Alvim,05641-021,Vila Suzana,São Paulo,-23.615675,-46.732574,1100000,4,4,2,3,Apartamento,198,21333,892794754-921.6342599277281DSC0078.jpg,1121,0,5,2024-12-13,-0.0233,,,,,,,
789,,892794755,500000,415555,,Rua Coronel Luís Barroso,04750-030,Santo Amaro,São Paulo,-23.6453107,-46.7036605,570000,1,1,1,1,Apartamento,33,150045,892794755-48.248308831559505011.jpg,626,0,8,2024-06-11,-0.0476,,,,,,,
789,,892794950,330000,355482,,Rua Padre Vieira,13015-301,Centro,Campinas,-22.9040297,-47.0546079,350000,2,2,1,1,Apartamento,70,14698,892794950-488.8511730866516DSC5182.jpg,255,0,13,2024-11-13,-0.0571,,,,,,,
789,,892795205,625000,525300,,Rua São Jorge,03087-000,Parque São Jorge,São Paulo,-23.5278163,-46.5662352,650000,1,3,0,1,Apartamento,92,16320,892795205-334.43299253232149520537.jpg,1283,0,7,2025-06-02,-0.0385,,,,,,,
789,,892795659,849000,745853,,Rua Constantino de Sousa,04605-000,Campo Belo,São Paulo,-23.6203665,-46.6761216,700000,1,1,1,1,Apartamento,49,578,892795659-374.1730374986277607062021MG3504.JPG,1464,1,12,2024-11-28,-0.1152,2021-07-20,Canceladas em negociação,520000,,,,
789,,892795781,798000,357990,,Avenida Ibijaú,04524-020,Moema,São Paulo,-23.6063525,-46.665479,460000,1,1,1,1,StudioOuKitchenette,25,40743,892795781-412.3799304519853IMG4387.jpg,1767,0,2,2024-05-24,-0.0482,,,,,,,
789,,892795959,1250000,657376,,Rua Quatá,04546-040,Vila Olímpia,São Paulo,-23.599676,-46.6745446,650000,1,1,0,1,Apartamento,30,88981,892795959-687.3254788494371THI5580.jpg,1527,0,2,2025-02-19,-0.0357,,,,,,,
789,,892796149,769000,620233,,Rua Doutor Alfredo de Castro,01155-060,Barra Funda,São Paulo,-23.5289137,-46.6645204,685000,1,2,1,1,Apartamento,58,149867,892796149-200.49515722755186DSC4075.JPG,1197,0,4,2024-08-21,-0.0066,,,,,,,
789,,892796186,587165,587545,,Rua Turiassu,05005-001,Perdizes,São Paulo,-23.5334648,-46.6675345,630000,2,2,0,1,Apartamento,72,7373,892796186-241.021709736127DSC3862.JPG,370,0,3,2024-07-11,-0.068,,,,,,,
789,,892796213,1140000,1118809,,Rua Capitão Pinto Ferreira,01423-020,Jardim Paulista,São Paulo,-23.5718574,-46.6550116,1200000,2,2,0,1,Apartamento,105,9402,892796213-727.844767616005IMG4155.jpg,749,0,13,2024-01-19,-0.05,,,,,,,
789,,892796340,650000,597624,,Rua Paulo Orozimbo,01535-000,Cambuci,São Paulo,-23.572109,-46.6254633,650000,2,2,1,0,Apartamento,85,12308,892796340-495.2518209195417IMG9526.JPG,3,0,0,,,,,,,,,
789,,892796422,520000,437210,,Avenida Ceci,04065-004,Planalto Paulista,São Paulo,-23.626475,-46.6472501,555000,2,2,0,0,Apartamento,68,17529,892796422-639.8032614535689MG6891.jpg,144,0,1,2025-04-16,-0.0631,,,,,,,
789,,892796818,670000,677297,,Rua Ribeiro do Vale,04568-000,Brooklin Paulista,São Paulo,-23.6143711,-46.6893436,670000,1,1,1,1,Apartamento,46,150532,892796818-848.324922368164DSC0110.jpg,133,0,4,,,,,,,,,
789,,892797199,2975000,2104722,,Rua Marcos Lopes,04513-080,Vila Nova Conceição,São Paulo,-23.5976199,-46.6714571,2300000,3,2,2,2,Apartamento,105,93546,892797199-945.2377679970032DSC0027.jpg,1145,0,4,2025-06-02,-0.0083,,,,,,,
789,,892797587,550000,578830,,Avenida Doutor Gentil de Moura,04278-080,Ipiranga,São Paulo,-23.6020872,-46.6064618,550000,1,2,0,1,Apartamento,50,150539,892797587-991.4693663074523QuintoAndar001.jpg,6,0,0,,,,,,,,,
789,,892797640,599000,389089,,Rua Maracaí,01534-030,Aclimação,São Paulo,-23.5720904,-46.6264053,532000,1,1,0,1,Apartamento,45,81972,892797640-177.601472677397DSC00382.jpg,1948,3,11,2024-02-19,-0.0505,2024-11-19,Canceladas em negociação,503000,,,,
789,,892797694,1180000,1546363,,Rua David Gebara,05642-040,Vila Suzana,São Paulo,-23.618542,-46.7349067,3000000,4,4,2,4,Apartamento,369,4317,892797694-493.77835653730386DSC0109.jpg,1747,0,0,2025-01-22,-0.0167,,,,,,,
789,,892797701,1350000,1472154,,Rua João Moura,05412-001,Pinheiros,São Paulo,-23.5631612,-46.6756637,1350000,2,3,1,1,Apartamento,178,6602,892797701-212.41205866139856DSC0003.jpg,1954,0,2,2025-06-09,-0.0182,,,,,,,
789,,892798320,550000,429371,,Avenida José Galante,05642-001,Vila Suzana,São Paulo,-23.6214471,-46.7381228,630000,2,3,0,1,Apartamento,78,150151,892798320-932.3446923517164DSC0174.jpg,429,0,0,2024-05-29,-0.127,,,,,,,
789,,892798383,900000,1038395,,Rua Custódio de Oliveira,05630-050,Vila Suzana,São Paulo,-23.6117037,-46.7367113,900000,3,3,3,3,Apartamento,210,35866,892798383-788.8479045533688DSC0078.jpg,144,0,3,,,,,,,,,
789,,892798644,1050000,1074259,,Rua Capote Valente,05409-001,Pinheiros,São Paulo,-23.5575194,-46.6754242,1200000,3,3,0,0,Apartamento,100,8006,892798644-234.41313612853142DSCF1512copy.jpg,1976,0,2,2025-05-22,-0.087,,,,,,,
789,,892798653,2275000,1744278,,Rua General Chagas Santos,04146-050,Vila da Saúde,São Paulo,-23.6186442,-46.6335015,2300000,5,4,3,4,Apartamento,135,125693,892798653-386.3864489218236DSC0100.jpg,140,0,0,2025-06-12,-0.0109,,,,,,,
789,,892798704,500000,609066,,Avenida Lins de Vasconcelos,01537-001,Cambuci,São Paulo,-23.5805725,-46.6245883,595000,2,3,0,1,Apartamento,89,12459,892798704-269.76365191868257DSC0053.JPG,1649,0,61,2024-05-05,-0.0909,,,,,,,
789,,892798811,680000,660716,,Alameda Araés,04066-003,Planalto Paulista,São Paulo,-23.6159869,-46.6573805,680000,1,2,0,0,Apartamento,90,15398,892798811-191.43884453185845IMG3852.jpg,1512,0,2,2024-01-05,-0.0472,,,,,,,
789,,892799219,1200000,888206,,Rua Sílvia,01331-010,Bela Vista,São Paulo,-23.5593364,-46.6507763,1200000,1,2,0,1,Apartamento,97,181458,892799219-450.301812458773QuintoAndar037.jpg,605,0,2,2024-06-06,-0.0208,,,,,,,
789,,892799224,1250000,1006434,,Alameda Jaú,01420-001,Jardim Paulista,São Paulo,-23.56646,-46.6545702,1250000,2,2,0,1,Apartamento,93,4916,892799224-318.3295994074524MG0886.jpg,289,0,3,2024-09-20,-0.024,,,,,,,
789,,892799249,370000,306290,,Avenida Paulo Afonso,09770-351,Nova Petrópolis,São Bernardo do Campo,-23.7086601,-46.5426509,380000,1,2,0,1,Apartamento,62,99385,892799249-194.98807163153398IMG1820.jpg,141,0,0,2025-06-12,-0.0263,,,,,,,
789,,892799260,559000,388574,,Rua Marie Nader Calfat,05713-520,Jardim Ampliação,São Paulo,-23.6267761,-46.7302445,489000,2,2,1,1,Apartamento,60,72106,892799260-336.9076682212873DSC1442.JPG,1431,0,12,2025-04-01,-0.0509,,,,,,,
789,,892799294,550000,538188,,Rua Viaza,04633-050,Jardim Aeroporto,São Paulo,-23.6331241,-46.6667043,600000,2,1,1,1,Apartamento,43,19834,892799294-46.151248734029096DSC00022.jpg,296,0,8,2025-02-13,-0.0833,,,,,,,
789,,892799324,570000,507273,,Rua Coronel Luís Barroso,04750-030,Santo Amaro,São Paulo,-23.6453107,-46.7036605,590000,1,1,1,1,Apartamento,48,150045,892799324-517.3945483171993DSC0002.jpg,144,0,0,2025-04-10,-0.0339,,,,,,,
789,,892799341,750000,619921,,Rua Pássaros E Flores,04704-000,Jardim das Acácias,São Paulo,-23.6224167,-46.6897575,820000,2,3,1,1,Apartamento,80,36041,892799341-274.64515425754087Semttulo.jpg,50,0,2,2025-06-03,-0.0854,,,,,,,
789,,892799662,270000,247133,,Rua Camaragibe,01154-050,Barra Funda,São Paulo,-23.5293842,-46.6599506,270000,1,1,0,0,Apartamento,40,151374,892799662-761.1709052160315THI5349copy.jpg,1596,0,21,,,,,,,,,
789,,892800057,850000,771311,,Avenida Leonor,07025-200,Vila Augusta,Guarulhos,-23.4837767,-46.5415174,850000,2,3,1,2,Apartamento,75,15871,892800057-302.27036764092475DSC0202.JPG,111,0,2,,,,,,,,,
789,,892800102,890000,689994,,Rua Padre Lebret,05653-160,Jardim Leonor,São Paulo,-23.6015784,-46.7177848,799000,2,1,1,1,Apartamento,47,15986,892800102-47.781472879060985DSC1468.JPG,1143,1,22,2024-06-29,-0.0626,2024-08-31,Canceladas pós Aceite,749000,,,,
789,,892800367,750000,572135,,Rua Henri Dunant,04709-110,Santo Amaro,São Paulo,-23.6262833,-46.7009327,750000,1,1,1,1,StudioOuKitchenette,33,88934,892800367-538.0361335203391MG7970.jpg,631,0,3,,,,,,,,,
789,,892800370,1099000,1094851,,Alameda Jauaperi,04523-014,Moema,São Paulo,-23.6056674,-46.6680491,850000,2,3,0,1,Apartamento,87,193284,892800370-100.1482304603627IMG26067.jpg,1961,0,12,2025-04-07,-0.1208,,,,,,,
789,,892800590,326000,355671,,Rua João Adolfo,01050-020,Centro,São Paulo,-23.5483456,-46.6403867,356000,1,1,0,0,Apartamento,52,99464,892800590-576.3924325007576THI7634copy.jpg,189,0,0,2025-06-06,-0.044,,,,,,,
789,,892801047,250000,183913,,Rua Culto À Ciência,13020-060,Botafogo,Campinas,-22.9027768,-47.0656547,210000,1,1,0,1,Apartamento,50,14349,892801047-435.9063968031117DSC2427.jpg,905,1,12,2024-11-05,-0.0625,2024-11-15,Compra e Venda Concluídas,150000,,,,
789,,892801125,865000,822529,,Rua Dom Armando Lombardi,05616-011,Vila Progredior,São Paulo,-23.5907198,-46.7188156,700000,3,3,1,2,Apartamento,86,59475,892801125-799.7360966508629DSC0466.JPG,1095,0,22,2025-06-12,-0.0226,,,,,,,
789,,892801303,150000,152095,,Rua Regente Feijó,13013-052,Centro,Campinas,-22.910742,-47.0576446,150000,1,1,1,0,StudioOuKitchenette,38,15811,892801303-142.68173205055922DSC2904.jpg,676,0,2,,,,,,,,,
789,,892801323,450000,383768,,Rua Barão de Tatuí,01243-000,Consolação,São Paulo,-23.5408081,-46.6549147,420000,1,1,0,0,Apartamento,50,15863,892801323-94.87146101425681QuintoAndar163.jpg,1397,2,22,2025-04-08,-0.0625,2025-03-17,Canceladas em negociação,400000,,,,
789,,892801366,680000,666302,,Rua Mateus Grou,05415-040,Pinheiros,São Paulo,-23.5615126,-46.6861646,680000,1,1,1,1,Apartamento,45,10547,892801366-652.5745586079361MG0345.jpg,305,1,16,,,2025-01-31,Compra e Venda Concluídas,635000,,,,
789,,892801590,470000,453493,,Rua Barão Monte Santo,03123-020,Mooca,São Paulo,-23.5769155,-46.5928486,420000,2,2,0,2,Apartamento,67,15707,892801590-507.7827925568793DSC0001.JPG,1329,0,9,2025-05-26,-0.0505,,,,,,,
789,,892801819,375000,367143,,Rua Scuvero,01527-000,Cambuci,São Paulo,-23.5630478,-46.6265949,380000,1,2,0,1,Apartamento,52,4611,892801819-803.065213733923921082020MG8947.jpg,1754,2,7,2025-05-26,-0.0435,2022-07-04,Canceladas em negociação,300000,,,,
789,,892801842,460000,557489,,Rua Doutor Chibata Miyakoshi,05705-170,Paraíso do Morumbi,São Paulo,-23.626494,-46.7235361,460000,2,1,1,2,Apartamento,57,96486,892801842-341.20505437177997DSC0243.JPG,531,0,5,,,,,,,,,
789,,892801993,480000,451539,,Rua Júlio Fernandes,07072-103,Jardim Imperador,Guarulhos,-23.448348,-46.5499622,490000,1,3,0,1,Apartamento,60,91825,892801993-999.1873446676074DSC0094.JPG,121,0,0,2025-03-14,-0.0204,,,,,,,
789,,892802251,680000,627706,,Rua Marie Nader Calfat,05713-520,Jardim Ampliação,São Paulo,-23.6267977,-46.730333,550000,2,3,1,2,Apartamento,110,45869,892802251-511.8737199626542DSC0718.JPG,1618,0,13,2024-04-22,-0.0096,,,,,,,
789,,892802257,1090000,1250672,,Rua São Benedito,04604-001,Santo Amaro,São Paulo,-23.6327377,-46.690155,800000,2,3,1,1,Apartamento,150,21085,892802257-794.3154030705986MG4414.jpg,618,0,17,,,,,,,,,
789,,892802400,495000,509947,,Rua Visconde Itaboraí,03308-050,Vila Azevedo,São Paulo,-23.5422955,-46.5728724,680000,2,2,0,1,Apartamento,70,13677,892802400-169.31202885780806QuintoAndar8831.jpg,207,0,13,2025-03-21,-0.1209,,,,,,,
789,,892802497,640000,659998,,Rua Brentano,05302-041,Vila Hamburguesa,São Paulo,-23.5338396,-46.7280175,720000,2,1,1,1,Apartamento,67,12050,892802497-63.3446334786627Cod1024971.jpg,1604,0,21,2025-05-23,-0.0156,,,,,,,
789,,892802539,1400000,1115647,,Rua Abílio Soares,04005-002,Paraíso,São Paulo,-23.5753655,-46.6476449,1450000,2,3,1,1,Apartamento,110,26409,892802539-611.6462535068521MG4292.jpg,122,0,3,2025-05-19,-0.0345,,,,,,,
789,,892802849,550000,537115,,Rua Ibirajá,04310-020,Vila Guarani (z Sul),São Paulo,-23.6321387,-46.6404998,620000,2,2,1,1,Apartamento,63,59801,892802849-880.94195286816409062017DSC0062.jpg,1318,1,12,2024-04-03,-0.0112,2024-04-18,Canceladas em negociação,450000,,,,
789,,892802870,900000,596848,,Avenida Doutor Cardoso de Melo,04548-003,Vila Olímpia,São Paulo,-23.6003391,-46.6799906,900000,1,1,1,1,StudioOuKitchenette,45,43072,892802870-752.5432982430826MG5376.jpg,232,0,3,,,,,,,,,
789,,892803845,520000,514746,,Alameda Uapês,04067-030,Planalto Paulista,São Paulo,-23.6124599,-46.6474566,472109,1,3,0,0,Apartamento,90,15307,892803845-973.929871546417THI4394.jpg,200,1,7,2025-04-26,-0.033,2025-04-28,Propostas Ongoing,458000,,,,
789,,892803883,405000,378401,,Rua Sacramento,13023-185,Vila Itapura,Campinas,-22.8991992,-47.0613231,430000,1,1,1,1,Apartamento,41,13814,892803883-966.2864568077886DSC5534.jpg,138,0,1,2025-04-28,-0.0591,,,,,,,
789,,892803893,370000,383453,,Rua Latif Fakhouri,04367-010,Vila Santa Catarina,São Paulo,-23.6508066,-46.6658328,370000,1,2,0,1,Apartamento,65,16177,892803893-809.8186366782799MG8266.jpg,602,0,2,,,,,,,,,
789,,892804143,415000,377837,,Rua Guaperoba,04288-140,Vila Brasílio Machado,São Paulo,-23.6107723,-46.6092419,532000,2,2,1,1,Casa,75,307022,892804143-412.12043646796405IMG0072.jpg,1026,0,1,2025-04-17,-0.0349,,,,,,,
789,,892804287,390000,404999,,Rua Guararapes,13041-308,Vila João Jorge,Campinas,-22.9157644,-47.0608534,390000,2,3,0,1,Apartamento,96,89170,892804287-559.857737055263IMG2424.jpg,198,0,2,,,,,,,,,
789,,892804328,747000,657660,,Rua Ventura Ladalardo,05704-140,Jardim Fonte do Morumbi,São Paulo,-23.6283554,-46.7187263,747000,2,1,1,1,Apartamento,70,150550,892804328-858.0291994477536IMG9421.jpg,303,0,5,2024-10-30,-0.0643,,,,,,,
789,,892804768,950000,873093,,Rua Diogo de Quadros,04710-010,Santo Amaro,São Paulo,-23.6264586,-46.6940088,870000,3,2,2,2,Apartamento,80,7834,892804768-135.955067862063901Sala2.jpg,904,1,68,2024-10-01,-0.0316,2023-11-15,Canceladas pós Aceite,820000,,,,
789,,892804848,465000,491419,,Rua Celso Ramos,05734-080,Vila Andrade,São Paulo,-23.6269218,-46.7466891,520000,2,3,1,2,Apartamento,66,25683,892804848-972.8350610898245IMG0427.JPG,547,1,20,2024-12-16,-0.0426,2025-01-16,Canceladas em negociação,410000,,,,
789,,892804880,890000,1101764,,Avenida José Galante,05642-001,Vila Suzana,São Paulo,-23.6216337,-46.7372647,1200000,4,4,2,3,Apartamento,213,15581,892804880-481.4624719486631DSC0543.JPG,560,0,0,2025-05-06,-0.0011,,,,,,,
789,,892805135,235000,281632,,Rua Vinte E Quatro de Maio,13035-370,Vila Industrial,Campinas,-22.9108855,-47.0712861,260000,1,2,0,1,Apartamento,68,150938,892805135-599.2594375639868IMG4755.jpg,1953,0,10,2024-10-29,-0.06,,,,,,,
789,,892805266,580000,553201,,Avenida Marcos Penteado de Ulhôa Rodrigues,06543-001,Tamboré,Santana de Parnaíba,-23.4699585,-46.8438772,575000,1,1,0,1,StudioOuKitchenette,51,18125,892805266-498.76780846552936DSC0001.jpg,1577,0,5,2025-04-07,-0.0678,,,,,,,
789,,892805478,2055000,1606021,,Rua Cristiano Viana,05411-001,Cerqueira César,São Paulo,-23.5564504,-46.679126,2400000,2,3,0,2,Casa,150,242389,892805478-897.5631821875452MG2574.jpg,1200,0,0,2025-06-11,-0.012,,,,,,,
789,,892805781,535000,586504,,Rua Dom Manuel de Andrade,04134-040,Vila Gumercindo,São Paulo,-23.6054461,-46.624557,445000,2,2,0,1,Apartamento,80,26821,892805781-676.1828085601074DSC0001.JPG,1835,0,4,2020-08-31,-0.0165,,,,,,,
789,,892805794,870000,1154807,,Rua Doutor James Ferraz Alvim,05641-021,Vila Suzana,São Paulo,-23.6164557,-46.7329795,954000,5,4,4,4,Apartamento,270,5628,892805794-740.649218929572IMG1821.jpg,1835,0,9,2023-02-22,-0.2092,,,,,,,
789,,892805902,660000,599514,,Rua Bela Cintra,01415-001,Consolação,São Paulo,-23.5586223,-46.6643866,560000,1,1,1,0,Apartamento,48,20448,892805902-18.839562641302045IMG5517.jpg,1002,2,13,2025-01-15,-0.0365,2023-01-24,CCV - Cancelado,560000,,,,
789,,892805990,607800,616022,,Rua Augusto dos Anjos,06485-370,Melville Empresarial Ii,Barueri,-23.4829856,-46.8470695,607800,1,1,1,2,Apartamento,62,63923,892805990-321.73927957066763DSC0184.jpg,143,0,2,,,,,,,,,
789,,892806308,730000,655127,,Rua Dom João V,05075-060,Lapa,São Paulo,-23.5247118,-46.7093093,670000,2,2,1,1,Apartamento,63,77512,892806308-179.40660387734908DSC0186.jpg,351,1,10,2025-02-20,-0.0205,2025-04-12,Canceladas em negociação,584000,,,,
789,,892806467,355000,375140,,Rua Bandeirantes,13024-010,Cambuí,Campinas,-22.8921244,-47.0552258,370000,1,1,0,1,Apartamento,45,94598,892806467-593.837337164387820170803023.jpg,181,0,5,2025-01-21,-0.0405,,,,,,,
789,,892806717,340000,218849,,Rua Marie Nader Calfat,05713-520,Jardim Ampliação,São Paulo,-23.6265127,-46.7302049,340000,1,1,0,1,Apartamento,36,150157,892806717-941.094432790585a4.JPG,57,0,1,,,,,,,,,
789,,892806823,450000,449125,,Rua Deputado Laércio Corte,05706-290,Paraíso do Morumbi,São Paulo,-23.6238948,-46.7261472,520000,2,3,0,2,Apartamento,86,201055,892806823-162.93698416346302DSC0810.JPG,988,0,8,2025-06-02,-0.0526,,,,,,,
789,,892806967,390000,380786,,Rua Santo Egidio,02461-011,Santa Teresinha,São Paulo,-23.4903812,-46.639761,390000,2,2,0,1,Apartamento,60,81240,892806967-272.1163436413524DSC9895.JPG,1577,1,16,2025-03-14,-0.0263,2023-09-26,Canceladas em negociação,378000,,,,
789,,892807591,1800000,1867337,,Avenida Zelina,03143-001,Vila Zelina,São Paulo,-23.5892715,-46.580156,1915000,5,4,3,3,Apartamento,280,99921,892807591-272.89717582758675IMG3453.jpg,1180,0,0,2024-07-19,-0.0152,,,,,,,
789,,892807929,1100000,814762,,Rua Reims,02517-010,Jardim das Laranjeiras,São Paulo,-23.5083683,-46.6623122,815000,4,3,1,2,Apartamento,128,15827,892807929-992.8425689818366DSC1644.JPG,1379,0,3,2024-10-30,-0.0249,,,,,,,
789,,892808136,785000,813524,,Rua Doutor Oscar Monteiro de Barros,05641-010,Vila Suzana,São Paulo,-23.6185315,-46.7356171,750000,3,3,3,3,Apartamento,157,13438,892808136-957.3903105539825DSC0169.jpg,184,0,11,,,,,,,,,
789,,892808339,850000,818505,,Rua João Pais,04603-039,Santo Amaro,São Paulo,-23.6293279,-46.6887238,850000,2,2,1,1,Apartamento,64,17099,892808339-348.8971367996252DSC1268.JPG,64,0,1,,,,,,,,,
789,,892808424,665000,778043,,Rua Hermantino Coelho,13087-500,Mansões Santo Antônio,Campinas,-22.8528002,-47.0511397,620000,3,3,1,3,Apartamento,123,16416,892808424-104.02382136593813setembro057.jpg,599,0,5,2025-04-21,-0.0362,,,,,,,
789,,892808607,820000,845433,,Rua José Maria Lisboa,01423-001,Jardim Paulista,São Paulo,-23.5676001,-46.6583807,820000,1,1,0,1,Apartamento,50,153813,892808607-489.34441243739826THI1773copy.jpg,144,0,0,,,,,,,,,
789,,892808677,200000,170148,,Rua Aurora,01209-003,Santa Efigênia,São Paulo,-23.5419781,-46.6432519,200000,1,1,0,0,StudioOuKitchenette,37,16433,892808677-667.1352190858244DSC0087.jpg,575,0,6,2025-02-28,-0.0526,,,,,,,
789,,892808758,1100000,1119910,,Avenida José Galante,05642-001,Vila Suzana,São Paulo,-23.6211282,-46.737381,1650000,3,4,3,4,Apartamento,236,9777,892808758-567.700360952594713.JPG,1680,0,4,2025-06-09,-0.12,,,,,,,
789,,892808822,426000,389078,,Rua José Carlos de Toledo Piza,05712-070,Jardim Parque Morumbi,São Paulo,-23.6214189,-46.7316669,480000,2,2,1,1,Apartamento,64,60995,892808822-433.8722514882833IMG20211110101818.jpg,1340,0,6,2024-12-06,-0.1125,,,,,,,
789,,892808850,410000,443044,,Avenida Orozimbo Maia,13024-035,Cambuí,Campinas,-22.8869401,-47.0498581,410000,2,2,1,1,Apartamento,78,16583,892808850-468.6165851296492DSC1098.jpg,1303,4,41,,,2025-04-02,Canceladas em negociação,370000,,,,
789,,892809043,350000,342379,,Praça 14 Bis,01312-010,Bela Vista,São Paulo,-23.5561126,-46.6502401,390000,1,1,0,0,Apartamento,54,16698,892809043-719.9346097570011DSC0053.jpg,1135,1,36,2024-07-15,-0.0463,2025-01-14,Canceladas em negociação,280000,,,,
789,,892809758,1200000,1254707,,Alameda Santos,01418-100,Cerqueira César,São Paulo,-23.5653398,-46.6537675,1200000,2,3,0,1,Apartamento,130,15700,892809758-67.94046723406954THI1814copy.jpg,32,0,0,,,,,,,,,
789,,892809961,890000,770484,,Rua Turiassu,05005-001,Perdizes,São Paulo,-23.5307622,-46.6757579,590000,2,2,1,1,Apartamento,51,96711,892809961-743.2185285182769FotoCarolKappaun224.JPG,1612,0,2,2025-02-11,-0.1934,,,,,,,
789,,892810037,2400000,2027632,,Rua Crítios,05630-040,Vila Suzana,São Paulo,-23.6104916,-46.7314563,2400000,5,4,4,3,Apartamento,510,9941,892810037-669.625698136144115.JPG,730,0,1,2024-08-12,-0.0123,,,,,,,
789,,892810062,880000,517767,,Rua Desembargador Guimarães,05002-050,Água Branca,São Paulo,-23.5299319,-46.6742873,620000,1,1,0,1,Apartamento,33,16752,892810062-238.25258334356624MG8251Z.jpg,1550,0,1,2024-03-25,-0.0365,,,,,,,
789,,892810507,2550000,2109795,,Rua Nogueiras,09090-090,Jardim,Santo André,-23.6486388,-46.5453629,2400000,4,3,3,4,Apartamento,199,100134,892810507-403.7420887474656313.JPG,203,0,2,2025-05-22,-0.0104,,,,,,,
789,,892810607,1100000,1171371,,Rua Alvorada,04550-045,Vila Olimpia,São Paulo,-23.6019059,-46.6811026,1175000,4,3,2,1,Apartamento,110,11072,892810607-536.929885680959MG6514.jpg,1432,0,4,2025-02-24,-0.1273,,,,,,,
789,,892810923,1700000,1448965,,Avenida Onze de Junho,04041-054,Vila Clementino,São Paulo,-23.6014984,-46.6495149,1600000,4,4,2,2,Apartamento,147,13459,892810923-416.74435152597067DSC0295.JPG,1355,0,28,2025-02-06,-0.0147,,,,,,,
789,,892811146,1720000,2477510,,Avenida Júlio de Mesquita,13025-060,Cambuí,Campinas,-22.8962452,-47.0568429,2300000,5,5,2,2,Apartamento,452,99142,892811146-496.60603710496420240402220529.JPG,436,0,0,2024-10-04,-0.0143,,,,,,,
789,,892811310,1200000,1115828,,Avenida Copacabana,06472-001,Empresarial 18 do Forte,Barueri,-23.4856073,-46.8544841,1217000,2,2,1,2,Apartamento,107,16919,892811310-344.3442371299493Arquivo008.jpeg,1642,0,4,2024-03-11,-0.04,,,,,,,
789,,892811368,1000000,914086,,Rua Santa Gertrudes,03408-020,Chácara Santo Antônio (zona Leste),São Paulo,-23.5478502,-46.554606,920000,2,3,1,2,Apartamento,150,10732,892811368-584.43950782304285andar1.JPG,176,0,5,,,,,,,,,
789,,892811450,450000,538940,,Rua Alfredo Pujol,02017-010,Santana,São Paulo,-23.5010189,-46.6386535,450000,1,2,0,1,Apartamento,86,10336,892811450-534.3489745872906DSC8433.JPG,149,0,4,,,,,,,,,
789,,892811578,1800000,1661988,,Rua Tuiucuê,04149-130,Jardim da Saúde,São Paulo,-23.6164825,-46.6231467,1950000,4,4,1,5,Apartamento,260,16434,892811578-392.84454260378277DSC0216.JPG,1598,0,5,2024-01-10,-0.0588,,,,,,,
789,,892811623,650000,584605,,Avenida José Galante,05642-001,Vila Suzana,São Paulo,-23.6184246,-46.7335401,700000,2,1,1,2,Apartamento,82,13383,892811623-888.6402516836008DSC1415.JPG,1803,0,33,2024-01-30,-0.058,,,,,,,
789,,892811735,793650,687398,,Rua Praia do Castelo,04362-020,Vila Mascote,São Paulo,-23.6469395,-46.6681446,670000,2,3,1,2,Apartamento,76,16038,892811735-288.2239123888375MG0004.JPG,1816,0,11,2025-06-01,-0.0675,,,,,,,
789,,892811746,560000,405084,,Rua Rio Preto,09060-090,Vila Valparaíso,Santo André,-23.6702717,-46.55036,550000,2,2,1,2,Apartamento,60,94732,892811746-216.10455852751042DSC0029.jpg,247,0,0,2025-02-20,-0.0179,,,,,,,
789,,892811840,357000,359395,,Rua Margarida de Lima,03081-010,Tatuapé,São Paulo,-23.5337743,-46.574526,390000,1,1,1,1,Apartamento,45,17302,892811840-277.4354355763136loloo0.jpg,87,0,9,2025-05-17,-0.0083,,,,,,,
789,,892811889,809000,843698,,Rua Vapabussu,04632-010,Jardim Aeroporto,São Paulo,-23.6313058,-46.6682713,870000,2,2,1,2,Apartamento,73,96763,892811889-927.6742687858015Luciano10.jpg,659,1,25,2024-08-19,-0.0253,2024-11-10,Canceladas em negociação,750000,,,,
789,,892812838,230000,244679,,Avenida São João,01036-100,República,São Paulo,-23.5402543,-46.6436375,230000,1,1,0,0,StudioOuKitchenette,36,17019,892812838-723.8934466018462QuintoAndar048.jpg,522,0,0,,,,,,,,,
789,,892812892,650000,654420,,Rua Major Solon,13024-091,Cambuí,Campinas,-22.8961394,-47.0589482,700000,3,3,1,1,Apartamento,105,56832,892812892-351.64349414332696DSC5563.jpg,799,0,7,2024-04-09,-0.0583,,,,,,,
789,,892813222,845000,910086,,Rua Sansão Alves dos Santos,04571-090,Cidade Monções,São Paulo,-23.6048088,-46.6950039,1100000,2,3,1,1,Apartamento,100,190362,892813222-246.9614616186745IMG1831.jpg,682,0,2,2025-06-04,-0.0059,,,,,,,
789,,892813239,1500000,1341394,,Rua Capitão Pinto Ferreira,01423-020,Jardim Paulista,São Paulo,-23.5717729,-46.6546978,1500000,2,3,1,1,Apartamento,138,205304,892813239-707.7296022176516IMG0992.jpg,21,0,0,,,,,,,,,
789,,892813360,2300000,2197249,,Rua Itapauna,05705-901,Panamby,São Paulo,-23.6367522,-46.7275124,2300000,4,3,3,3,Apartamento,160,22311,892813360-932.4571229213763DSC0420.JPG,107,0,1,,,,,,,,,
789,,892813411,3400000,3450678,,Rua Ministro Gabriel de Rezende Passos,04521-020,Moema,São Paulo,-23.5994798,-46.662977,3400000,4,4,3,3,Apartamento,220,9322,892813411-853.2864860761606MG0351.jpg,25,0,0,,,,,,,,,
789,,892813423,340000,350297,,Rua Porcelana,04323-001,Jabaquara,São Paulo,-23.6552054,-46.6377893,380000,1,2,0,1,Apartamento,68,99826,892813423-377.0347621249818MG3456.jpg,241,0,2,2025-06-10,-0.0556,,,,,,,
789,,892813634,2700000,1636897,,Rua João Moura,05412-000,Pinheiros,São Paulo,-23.5631612,-46.6756637,1900000,3,2,2,1,Apartamento,190,6602,892813634-148.99703351603887IMG3315.jpg,1309,0,0,2024-01-01,-0.0185,,,,,,,
789,,892813863,490000,457645,,Rua Coronel José Pires de Andrade,04295-001,Vila Vera,São Paulo,-23.6226802,-46.6040418,530000,2,3,1,1,Apartamento,69,52275,892813863-5.010756849093134DSC0112.JPG,1366,0,0,2021-11-12,-0.0577,,,,,,,
789,,892814080,250000,267911,,Avenida Estado,01516-100,Cambuci,São Paulo,-23.5595616,-46.6147609,250000,1,1,0,0,Apartamento,40,14712,892814080-845.0472846808359DSC0372.JPG,353,0,0,,,,,,,,,
789,,892814574,1330000,1315240,,Rua Tavares Cabral,05423-030,Pinheiros,São Paulo,-23.5705002,-46.6929477,1500000,2,2,1,2,Apartamento,72,95186,892814574-594.9004268863898MG9165.jpg,1124,2,46,2025-04-23,-0.0362,2025-04-08,Canceladas em negociação,1250000,,,,
789,,892814885,3990000,2384576,,Rua Maestro Cállia,04012-100,Vila Mariana,São Paulo,-23.5832253,-46.6454946,2500000,3,4,1,2,Casa,190,235990,892814885-935.7907254840786DSC0056.JPG,234,0,0,,,,,,,,,
789,,892815036,440000,400847,,Rua do Simbolo,05713-570,Jardim Ampliação,São Paulo,-23.6241711,-46.7288554,450000,2,2,1,1,Apartamento,74,15399,892815036-295.8471319664201DSC0946.JPG,730,0,2,2023-07-29,-0.0222,,,,,,,
789,,892815065,280000,301738,,Rua Andrade Reis,03105-100,Mooca,São Paulo,-23.5560586,-46.6194463,302287,1,1,1,0,Apartamento,35,17330,892815065-403.72268859688563MG3726.JPG,149,0,0,2025-06-02,-0.0581,,,,,,,
789,,892815330,310000,325246,,Alameda Eduardo Prado,01218-011,Campos Elíseos,São Paulo,-23.5292421,-46.6474341,310000,1,1,0,1,StudioOuKitchenette,40,14121,892815330-324.017613591799835a027.jpg,2,0,0,,,,,,,,,
789,,892815702,750000,657221,,Avenida Trindade,06404-326,Bethaville I,Barueri,-23.5060636,-46.8672576,650000,2,2,1,1,Apartamento,63,111379,892815702-371.03644477612386DSC0024.jpg,1181,0,15,2025-04-29,-0.0168,,,,,,,
789,,892815792,320000,355229,,Avenida Luiz Dumont Villares,02085-000,Jardim São Paulo(zona Norte),São Paulo,-23.4976944,-46.6124946,350000,1,2,0,1,Apartamento,50,24893,892815792-44.17547971610514DSC6348.JPG,147,6,56,2025-03-14,-0.0857,2025-06-04,Canceladas em negociação,314000,,,,
789,,892815851,229000,233940,,Avenida Princesa D39oeste,13100-040,Jardim Paraíso,Campinas,-22.9068211,-47.0456764,255000,1,1,1,1,Apartamento,56,17358,892815851-964.2021339890683IMG9649.JPG,1095,0,2,2025-04-10,-0.0221,,,,,,,
789,,892816194,690000,650699,,Rua Bela Cintra,01415-000,Consolação,São Paulo,-23.5524515,-46.6552393,750000,1,1,0,1,Apartamento,40,95610,892816194-726.7122679414582IMG9085.jpg,154,0,6,2025-05-09,-0.08,,,,,,,
789,,892816458,240000,225609,,Avenida Estado,01516-100,Cambuci,São Paulo,-23.5595616,-46.6147609,250000,1,1,0,0,Apartamento,33,14712,892816458-709.3185968608608MG6336.JPG,1042,1,2,2025-02-28,-0.0769,2025-04-02,Canceladas em negociação,215000,,,,
789,,892816645,950000,608356,,Rua Treze de Maio,01327-002,Bela Vista,São Paulo,-23.5665973,-46.6446542,980000,1,2,0,1,Apartamento,106,6975,892816645-975.8056466239509IMG0818.jpg,1341,0,1,2025-06-09,-0.1364,,,,,,,
789,,892816945,700000,559667,,Rua Cruz Lima,22230-010,Flamengo,Rio de Janeiro,-22.936533,-43.1748444,900000,1,2,0,1,Apartamento,55,18174,892816945-669.0031087065678IMG8650.jpg,637,0,63,2025-04-22,-0.04,,,,,,,
789,,892817203,450000,414256,,Avenida Leonardo da Vinci,04313-000,Vila Guarani (z Sul),São Paulo,-23.6362903,-46.6379295,450000,1,2,0,1,Apartamento,58,7889,892817203-437.1639514012404DSC0195.jpg,4,0,1,,,,,,,,,
789,,892817326,350000,304442,,Avenida Nove de Julho,01313-001,Bela Vista,São Paulo,-23.5586975,-46.6536747,340000,1,1,0,0,Apartamento,40,16202,892817326-552.645868428094IMG1701.jpg,574,0,13,2024-08-09,-0.0508,,,,,,,
789,,892817857,450000,441032,,Rua Apinajés São Paulo - Sp Brasil,05017-000,Perdizes,São Paulo,-23.5419778,-46.6834139,484000,1,1,1,1,Apartamento,45,4465,892817857-974.945327464678DSC0001.JPG,451,0,18,2025-06-10,-0.0526,,,,,,,
789,,892818112,1125000,1141296,,Rua Fernão Dias,05427-000,Pinheiros,São Paulo,-23.5639218,-46.6951728,1150000,1,1,0,1,Apartamento,58,97315,892818112-181.7946533388912FOTOS5ANDARS2119710IM1181120003Ed.jpg,1662,0,2,2025-06-05,-0.0217,,,,,,,
789,,892818136,2100890,1958556,,Avenida Angélica,01227-000,Santa Cecília,São Paulo,-23.5375405,-46.6550224,2100890,2,3,1,1,Apartamento,240,17586,892818136-353.955904326397335andar42.jpg,127,0,2,,,,,,,,,
789,,892818197,460000,466180,,Rua Avelino Diz,13093-220,Jardim Flamboyant,Campinas,-22.8806168,-47.0363245,490000,2,3,1,1,Apartamento,93,17644,892818197-571.40430619414545A044.jpg,1211,0,45,2022-06-20,-0.0612,,,,,,,
789,,892818228,2200000,1621959,,Rua Doutor Chibata Miyakoshi,05705-170,Paraíso do Morumbi,São Paulo,-23.6261676,-46.7224136,2000000,5,4,4,4,Apartamento,300,11176,892818228-984.4484671594819apto5de96.jpg,1177,0,3,2024-07-17,-0.32,,,,,,,
789,,892818232,520000,460874,,Praça Vereador Rocha Leão,22031-060,Copacabana,Rio de Janeiro,-22.9642939,-43.1905298,690000,1,2,0,0,Apartamento,50,44931,892818232-886.9070491379388IMG6323.jpg,696,0,3,2024-12-12,-0.0459,,,,,,,
789,,892818404,1307000,1515732,,Avenida Celso Garcia,03063-000,Tatuapé,São Paulo,-23.535404,-46.570346,1300000,4,2,2,2,Apartamento,180,7842,892818404-369.609234458966DSC4710.jpg,785,0,2,2025-04-27,-0.0297,,,,,,,
789,,892818617,990000,774936,,Rua Henri Dunant,04709-110,Santo Amaro,São Paulo,-23.6262833,-46.7009327,750000,1,1,1,1,Apartamento,45,88934,892818617-795.3822685447019DSC0245.jpg,1409,0,14,2024-03-05,-0.0355,,,,,,,
789,,892818619,600000,509738,,Travessa Santa Leocádia,22061-050,Copacabana,Rio de Janeiro,-22.974128,-43.194255,600000,1,1,0,0,Apartamento,50,111450,892818619-238.28611021429435a.jpg,16,0,0,,,,,,,,,
789,,892818632,1340000,1258430,,Avenida Jacutinga,04523-000,Moema,São Paulo,-23.6015607,-46.6693953,1360000,1,2,0,1,Apartamento,90,6382,892818632-390.8339727803649MG8721.jpg,1375,0,1,2024-01-23,-0.0231,,,,,,,
789,,892818645,900000,757942,,Rua Lídia,09730-050,Rudge Ramos,São Bernardo do Campo,-23.6684741,-46.564849,950000,5,4,2,2,Apartamento,200,99739,892818645-884.8836362248642IMG9176.jpg,1557,0,13,2024-06-07,-0.0355,,,,,,,
789,,892818748,1020000,597150,,Rua Santo Antônio,01314-000,Bela Vista,São Paulo,-23.551787,-46.6453006,1000000,1,1,1,1,Apartamento,50,149925,892818748-834.21140828268815a159.jpg,785,0,0,,,,,,,,,
789,,892818770,800000,911722,,Rua Mateus Grou,05415-040,Pinheiros,São Paulo,-23.5633842,-46.6851977,800000,2,1,1,1,Apartamento,69,12736,892818770-183.1416911657757DSC3075.jpg,338,0,7,2025-04-16,-0.0303,,,,,,,
789,,892818932,260000,268770,,Rua Tota Nogueira,09810-090,Assunção,São Bernardo do Campo,-23.717838,-46.563759,215000,1,2,0,1,Apartamento,58,20248,892818932-823.3877420799154DSC0136.jpg,1365,0,10,2024-04-25,-0.0192,,,,,,,
789,,892819020,450000,362047,,Rua Avanhandava,01306-001,Bela Vista,São Paulo,-23.5502338,-46.6449464,450000,1,1,1,0,StudioOuKitchenette,28,149950,892819020-525.1948715321784IMG5445.jpg,11,0,0,,,,,,,,,
789,,892819198,550000,614383,,Rua Marie Nader Calfat,05713-520,Jardim Ampliação,São Paulo,-23.6266069,-46.7295103,650000,2,3,1,2,Apartamento,100,21624,892819198-574.4989439778554DSC0608.JPG,533,0,0,2024-05-15,-0.0364,,,,,,,
789,,892819237,990000,983382,,Rua Doutor Eduardo de Souza Aranha,04543-120,Vila Nova Conceição,São Paulo,-23.5881904,-46.6721855,1000000,1,1,1,1,Apartamento,50,2801,892819237-115.89970454368081IMG5717.JPG,435,0,11,2025-03-10,-0.0269,,,,,,,
789,,892819505,1600000,1590589,,Rua Ministro Artur Ribeiro,22461-230,Jardim Botânico,Rio de Janeiro,-22.9588111,-43.2055005,1600000,2,3,1,1,Apartamento,110,18737,892819505-859.0510508126603DSC0387.JPG,1044,0,1,2025-05-23,-0.1257,,,,,,,
789,,892819519,820000,774709,,Alameda Lorena,01424-004,Jardim Paulista,São Paulo,-23.5660322,-46.6631886,980000,1,1,0,1,Apartamento,47,59984,892819519-875.0094710173123IMG1888.jpeg,135,0,7,2025-02-25,-0.1087,,,,,,,
789,,892819553,1190000,1073074,,Rua Doutor Clóvis de Oliveira,05616-000,Vila Progredior,São Paulo,-23.5881358,-46.7189757,1150000,2,3,1,2,Apartamento,110,25953,892819553-76.5791383802934DSC0278.jpg,1452,0,16,2024-12-06,-0.0336,,,,,,,
789,,892819612,2875000,2645154,,Rua Pintassilgo,04514-030,Vila Uberabinha,São Paulo,-23.6014606,-46.6716774,3200000,4,3,3,3,Apartamento,209,4290,892819612-667.06554907148255andar24.jpg,235,0,5,2025-06-05,-0.0086,,,,,,,
789,,892819619,350000,340146,,Rua Carlo Carra,04367-000,Vila Santa Catarina,São Paulo,-23.6521677,-46.6646571,360000,1,2,0,1,Apartamento,65,10213,892819619-674.1397694847094DSC0342.JPG,1494,0,5,2024-06-26,-0.0492,,,,,,,
789,,892819770,480249,480249,,Rua Ministro Ferreira Alves,05009-060,Perdizes,São Paulo,-23.5290453,-46.6867315,480249,1,1,0,1,Apartamento,50,16582,892819770-537.8754048602563DSC3898.JPG,11,0,0,,,,,,,,,
789,,892819810,1299000,1025719,,Rua Apeninos,04104-020,Paraíso,São Paulo,-23.5741616,-46.639419,1299000,2,2,1,1,Apartamento,65,94490,892819810-861.9676092182654IMG0137.jpg,1054,0,16,2024-07-18,-0.0197,,,,,,,
789,,892820182,445000,458262,,Rua Professor João Batista de Brito,06020-050,Vila Yara,Osasco,-23.5494347,-46.7595025,460000,1,2,0,1,Apartamento,90,21320,892820182-330.4766231079188DSC0048.jpg,204,0,4,2025-03-07,-0.0326,,,,,,,
789,,892820379,830000,822925,,Rua Senador César Lacerda Vergueiro,05435-010,Sumarezinho,São Paulo,-23.5470304,-46.6928613,900000,1,2,0,1,Apartamento,80,9700,892820379-341.420525152193DSC5982.jpg,429,0,1,2025-01-03,-0.0235,,,,,,,
789,,892820576,590000,621273,,Rua Barão Triunfo,04602-000,Brooklin Paulista,São Paulo,-23.6253713,-46.684225,650000,1,1,1,1,Apartamento,56,64863,892820576-284.97149471369687Sala2.jpg,220,0,9,2024-11-21,-0.0923,,,,,,,
789,,892820823,620000,636691,,Avenida Santo Amaro,04556-903,Brooklin Paulista,São Paulo,-23.621022,-46.6833913,750000,1,3,0,0,Apartamento,100,17366,892820823-953.1898879598506DSC0065.jpg,74,0,1,2025-05-20,-0.1143,,,,,,,
789,,892820824,800000,541429,,Rua Dom Paulo Pedrosa,05687-002,Real Parque,São Paulo,-23.6118306,-46.7059744,550000,3,2,1,2,Apartamento,89,3340,892820824-261.8492489056404DSC1631copy.jpg,760,1,11,2025-05-15,-0.3625,2024-10-24,Canceladas em negociação,600000,,,,
789,,892821008,400000,361422,,Rua Três de Maio,09725-810,Jardim Olavo Bilac,São Bernardo do Campo,-23.7013848,-46.5554718,430000,1,2,0,2,Apartamento,56,17993,892821008-117.95288611870059DSC0002.jpg,1157,0,13,2024-06-13,-0.0448,,,,,,,
789,,892821016,980000,847718,,Rua Santa Maria Rossello,13087-503,Mansões Santo Antônio,Campinas,-22.8539968,-47.0555598,1050000,3,2,2,2,Apartamento,98,56507,892821016-132.0282611202168320250210142634.jpg,122,0,1,2025-03-21,-0.0667,,,,,,,
789,,892821147,700000,406505,,Rua Reims,02517-010,Jardim das Laranjeiras,São Paulo,-23.5079504,-46.6629524,450000,2,3,1,2,Apartamento,60,17216,892821147-304.1155033132642DSC7835.JPG,1479,0,3,2024-08-22,-0.0556,,,,,,,
789,,892821271,1275000,1482350,,Rua Gaspar Fernandes,01549-000,Vila Monumento,São Paulo,-23.5753441,-46.6159421,1400000,5,3,3,3,Apartamento,230,101021,892821271-312.16238338553484DSC0054.JPG,647,0,1,2024-11-27,-0.02,,,,,,,
789,,892821367,2000000,1842360,,Alameda Lorena,01424-000,Jardim Paulista,São Paulo,-23.5733092,-46.6560698,2100000,2,2,1,1,Apartamento,136,17152,892821367-443.4561330186999IMG0626.jpg,44,0,0,2025-05-20,-0.0476,,,,,,,
789,,892821622,1378000,1108109,,R. Monte Alegre São Paulo - Sp Brasil,05014-000,Perdizes,São Paulo,-23.5381208,-46.6704927,1228000,3,2,2,2,Apartamento,80,21904,892821622-244.47684840996564DSC9499.jpg,221,0,0,2025-05-30,-0.0178,,,,,,,
789,,892821737,910000,854559,,Rua Pedro Doll,02404-001,Santana,São Paulo,-23.4916249,-46.6282496,920000,3,3,1,2,Apartamento,101,11852,892821737-227.53896893853IMG7404.JPG,326,1,25,2025-05-17,-0.0521,2024-12-13,Canceladas em negociação,900000,,,,
789,,892821746,590000,553347,,Rua Oratório,03117-000,Mooca,São Paulo,-23.558271,-46.5958992,560000,2,3,0,1,Apartamento,117,1809,892821746-95.27978676649707MG7039.JPG,795,1,19,2024-09-16,-0.0364,2024-07-18,Canceladas pós Aceite,550000,,,,
789,,892821812,1245000,1679572,,Rua da Matriz,22281-050,Botafogo,Rio de Janeiro,-22.9549297,-43.1913751,1380000,3,3,1,0,Apartamento,136,18617,892821812-475.327540154101RMPL3087.jpg,499,0,1,2024-10-29,-0.0197,,,,,,,
789,,892822076,490000,574165,,"R. Nazira Carone, 106 - Jardim Ampliacao, São Paulo - Sp, 05713-560, Brasil",05713-560,Jardim Ampliação,São Paulo,-23.6242998,-46.7311148,490000,1,2,0,1,Apartamento,72,22040,892822076-139.364388189808355andar1.jpg,156,0,0,,,,,,,,,
789,,892822299,150000,144742,,Rua Regente Feijó,13026-505,Vila Lídia,Campinas,-22.9088358,-47.0584486,150000,1,1,0,0,StudioOuKitchenette,16,18181,892822299-886.10131944362385A045.jpg,220,0,0,2025-04-18,-0.0357,,,,,,,
789,,892822491,598000,613942,,Rua José da Silva Ribeiro,05726-130,Vila Andrade,São Paulo,-23.625238,-46.7406337,598000,3,2,2,2,Apartamento,83,7526,892822491-225.22429331228315andar8.jpg,93,0,8,,,,,,,,,
789,,892822700,790000,973275,,Rua Continental,09726-412,Jardim do Mar,São Bernardo do Campo,-23.6853019,-46.555514,750000,4,4,3,3,Apartamento,180,44304,892822700-88.28491832052975DSC0051.jpg,1785,0,32,2025-03-10,-0.0695,,,,,,,
789,,892823063,1365000,1034555,,Avenida Dom Jaime de Barros Câmara,09895-400,Planalto,São Bernardo do Campo,-23.707456,-46.5689202,1390000,5,3,3,2,Apartamento,144,41476,892823063-879.4384533652462DSC0197.jpg,155,0,1,2025-06-12,-0.018,,,,,,,
789,,892823165,1990000,1333971,,Av. Mofarrej,05311-000,Vila Leopoldina,São Paulo,-23.5317834,-46.7451035,1890000,3,3,0,2,Apartamento,140,149883,892823165-34.29438249340533MG5456.JPG,863,1,2,2024-04-05,-0.0146,2024-04-19,Canceladas em negociação,1790000,,,,
789,,892823551,505000,438839,,Rua Santo Antônio,01314-000,Bela Vista,São Paulo,-23.551787,-46.6453006,530000,1,1,0,1,StudioOuKitchenette,35,149925,892823551-228.20424304128917MG8677.JPG,261,0,2,2025-06-06,-0.0288,,,,,,,
789,,892823642,245000,251034,,Avenida São João,01035-000,Centro,São Paulo,-23.5402308,-46.6436169,250000,1,1,0,0,Apartamento,39,17019,892823642-953.2456873911026MG8770.JPG,154,0,0,2025-05-29,-0.02,,,,,,,
789,,892823819,990000,1288019,,Rua Iubatinga,05716-110,Vila Andrade,São Paulo,-23.6294873,-46.7335071,990000,4,4,4,4,Apartamento,250,11241,892823819-242.614335689374065andar1.jpg,1288,0,9,,,,,,,,,
789,,892823857,380000,333560,,Avenida Bussocaba,06036-080,Umuarama,Osasco,-23.5445238,-46.7723155,380000,1,1,0,1,Apartamento,41,100893,892823857-425.38425968008244DSC0035.jpg,771,0,1,,,,,,,,,
789,,892823859,165000,216110,,Rua Ranulfo de Campos Sales,13042-170,Vila Marieta,Campinas,-22.9295928,-47.0534513,180000,1,2,0,1,Apartamento,60,18400,892823859-35.5727943007922965A071.jpg,1127,1,17,2024-10-29,-0.0294,2023-06-07,Canceladas em negociação,160000,,,,
789,,892823867,400000,311898,,Avenida Presidente Humberto de A. Castelo Branco,07024-170,Vila Leonor,Guarulhos,-23.4710902,-46.546002,400000,1,2,0,1,Apartamento,60,51701,892823867-779.9721107256634IMG0384.jpg,2,0,0,,,,,,,,,
789,,892824056,1625000,1323610,,Praça Monsenhor José Maria Monteiro,05054-180,Vila Ipojuca,São Paulo,-23.539476,-46.7028,1200000,3,3,1,2,Apartamento,127,4987,892824056-708.0680815151362DSC2693.jpg,819,0,8,2025-06-12,-0.0152,,,,,,,
789,,892824342,479000,478499,,R. Olímpia de Almeida Prado,01151-010,Barra Funda,São Paulo,-23.5318985,-46.657785,479000,1,1,1,1,Apartamento,33,151288,892824342-826.2396907973334DSC8670.JPG,127,0,1,,,,,,,,,
789,,892824376,295000,322626,,Rua Emilio Candido Bortoleto,13031-620,Parque Industrial,Campinas,-22.9226663,-47.0874323,320000,1,2,0,1,Casa,90,28221,892824376-36.09617495280793DSC9158.jpg,1241,1,76,2025-05-31,-0.339,2024-11-14,Canceladas em negociação,237150,,,,
789,,892824389,600000,556750,,Rua Paim,01306-010,Bela Vista,São Paulo,-23.5535108,-46.6510353,580000,1,1,0,1,StudioOuKitchenette,40,37827,892824389-29.906538824207907MG0655.JPG,233,0,1,2025-04-04,-0.0263,,,,,,,
789,,892824966,1500000,1126990,,Rua Giuseppe Máximo Scolfaro,13083-200,Cidade Universitária,Campinas,-22.805595,-47.0641442,1127000,4,3,1,2,CasaCondominio,250,21038,892824966-806.74717220351245A232.jpg,335,0,1,,,,,,,,,
789,,892825481,3332000,3107645,,Rua Conselheiro Moreira de Barros,02018-010,Santana,São Paulo,-23.4889842,-46.6370297,2700000,5,3,1,4,Apartamento,344,2505,892825481-595.9722592388398C1.JPG,1498,0,0,2021-07-06,-0.0185,,,,,,,
789,,892825531,8850000,4189562,,Av Lucio Costa,22630-011,Barra da Tijuca,Rio de Janeiro,-23.009819,-43.34142,6750000,6,4,4,3,Apartamento,280,101325,892825531-339.43833495074813APontes2018MG2231.JPG,888,0,0,2024-01-10,-0.0032,,,,,,,
789,,892825772,1500000,1010609,,Rua Domingos Ferreira,22050-011,Copacabana,Rio de Janeiro,-22.9712964,-43.1856778,1600000,2,2,1,0,Apartamento,80,101343,892825772-485.76633195284IMG9155.jpg,934,0,2,2024-12-31,-0.0286,,,,,,,
789,,892825880,800000,865083,,Rua Santo Irineu,04127-120,Bosque da Saúde,São Paulo,-23.6034147,-46.6269836,950000,3,3,1,2,Apartamento,96,18631,892825880-928.056181449793DSC0001.JPG,1058,1,20,2025-06-04,-0.019,2025-05-15,Canceladas em negociação,700000,,,,
789,,892825899,265000,184746,,Rua Major Diogo,01324-001,Bela Vista,São Paulo,-23.5570995,-46.6429477,220000,1,1,0,0,StudioOuKitchenette,31,62394,892825899-448.0445648023273308062021IMG2809.jpg,1470,1,9,2021-12-23,-0.0526,2021-08-08,Canceladas em negociação,140000,,,,
789,,892826040,1730000,1736800,,Av Epitacio Pessoa,22471-000,Lagoa,Rio de Janeiro,-22.9639566,-43.2036171,1850000,2,3,0,2,Apartamento,120,101362,892826040-190.33473330665961DSC5021.JPG,154,0,0,2025-03-17,-0.0649,,,,,,,
789,,892826296,945000,1206209,,Rua Pamplona,01405-001,Jardim Paulista,São Paulo,-23.5589549,-46.6514878,1390000,2,2,1,1,Apartamento,120,18706,892826296-565.3577210156346IMG80652.jpg,1122,0,1,2025-06-11,-0.0258,,,,,,,
789,,892826740,1080000,944939,,Avenida Carandaí,30130-060,Funcionários,Belo Horizonte,-19.9293124,-43.9228954,1100000,2,4,1,1,Apartamento,170,101405,892826740-11.51492253182651IMG4367.jpg,144,0,0,2025-06-05,-0.0182,,,,,,,
789,,892826923,1080000,1026160,,Rua Pedro de Godoy,03138-010,Parque da Vila Prudente,São Paulo,-23.587195,-46.5819147,1100000,3,3,2,2,Apartamento,96,1747,892826923-37.423015767947376MG9817.JPG,442,0,0,2024-05-27,-0.0149,,,,,,,
789,,892826940,200000,235711,,Rua Carutapera,07021-250,Gopoúva,Guarulhos,-23.4713954,-46.5436089,200000,1,1,0,1,Apartamento,38,99388,892826940-433.80951637123576IMG0773.jpg,246,0,5,,,,,,,,,
789,,892827199,420684,427409,,Rua Vianas,09760-510,Baeta Neves,São Bernardo do Campo,-23.6995785,-46.5489423,420684,1,3,0,0,Apartamento,66,17348,892827199-258.6172675794153DSC0033.jpg,25,0,0,,,,,,,,,
789,,892827294,680000,735350,,Rua Adalberto Kemeny,01139-050,Parque Industrial Tomas Edson,São Paulo,-23.5200236,-46.675909,630000,2,2,1,1,Apartamento,69,153738,892827294-553.4487103236638FotografoArquiteturaImoveisCarolKappaun341.JPG,1779,0,6,2025-06-05,-0.0073,,,,,,,
789,,892827319,839000,863099,,Avenida do Cursino,04132-000,Saúde,São Paulo,-23.6104863,-46.6177588,775000,3,3,1,3,Apartamento,100,16012,892827319-670.145952052163DSC5152.jpg,568,1,5,,,2024-08-09,Compra e Venda Concluídas,780000,,,,
789,,892827351,430000,417069,,Rua Nossa Senhora da Saúde,04159-001,Jardim Previdência,São Paulo,-23.6222665,-46.6071715,460000,2,2,1,1,Apartamento,58,93682,892827351-299.55275243879487DSC6178.jpg,148,0,7,2025-05-18,-0.0652,,,,,,,
789,,892827417,150000,197050,,Avenida Francisco Glicério,13012-000,Centro,Campinas,-22.9020411,-47.0613073,155000,1,1,1,0,Apartamento,60,20003,892827417-879.3355703867292DSC8156.jpg,1021,2,8,2022-11-04,-0.0323,2023-09-02,Canceladas em validação,130000,,,,
789,,892827427,550000,475369,,Rua Alvaro Chaves,22231-220,Laranjeiras,Rio de Janeiro,-22.9360875,-43.1848092,580000,2,1,1,0,Apartamento,51,23567,892827427-676.0469769212149JLS7709.jpg,77,0,1,2025-05-22,-0.0517,,,,,,,
789,,892827615,498000,518623,,Rua Campo Largo,03186-010,Vila Bertioga,São Paulo,-23.5673602,-46.5839088,750000,3,2,1,1,Apartamento,80,154727,892827615-153.55848072813438427615.JPG,795,0,19,2024-11-21,-0.0523,,,,,,,
789,,892827681,640000,644053,,Rua Charles Spencer Chaplin,05642-010,Vila Andrade,São Paulo,-23.623936,-46.7346,630000,2,3,1,2,Apartamento,105,151330,892827681-902.6264133441217MG7781.jpg,809,0,3,2024-01-25,-0.0391,,,,,,,
789,,892827815,450000,437965,,Praça Duque de Caxias,06000-000,Centro,Osasco,-23.5377882,-46.781553,480000,2,2,0,1,Apartamento,70,18866,892827815-984.5058217586974DSC0077.jpg,225,0,5,2025-02-02,-0.0217,,,,,,,
789,,892828138,400000,383701,,Rua General Bagnuolo,03152-130,Quinta da Paineira,São Paulo,-23.5939693,-46.5798277,400000,1,2,0,1,Apartamento,70,2696,892828138-930.9649821844628IMG0676.jpg,21,0,3,,,,,,,,,
789,,892828660,920000,938283,,Rua Guaruja,04052-110,Mirandópolis,São Paulo,-23.611294,-46.6422308,992000,2,3,1,2,Apartamento,117,165184,892828660-369.72848926336035andar2.jpg,304,0,17,2024-11-19,-0.0726,,,,,,,
789,,892828676,370000,338840,,Rua Copacabana,02461-000,Santa Teresinha,São Paulo,-23.4919905,-46.6396212,370000,1,2,0,1,Apartamento,50,3630,892828676-14.937933078771227SCM9242.JPG,1257,0,6,2024-02-06,-0.0441,,,,,,,
789,,892828829,900000,687548,, R. Antônio Luís Carbone,13083-050,Cidade Universitária,Campinas,-22.8051206,-47.0634302,900000,4,3,1,2,Casa,240,189524,892828829-82.50815272489176DSC0547.jpg,7,0,0,,,,,,,,,
789,,892829010,1600000,1072936,,Rua Doutor Mário Ferraz,01453-010,Jardim Europa,São Paulo,-23.5833953,-46.6860407,1600000,1,1,1,1,Apartamento,50,33438,892829010-952.8920601785643MG0190.jpg,129,0,2,,,,,,,,,
789,,892829244,540000,686172,,Rua dos Tapes,01527-050,Cambuci,São Paulo,-23.5622506,-46.6304512,700000,1,3,0,1,Apartamento,110,72962,892829244-729.1224340289698DSC0178.jpg,276,0,4,2025-05-21,-0.0847,,,,,,,
789,,892829358,540000,476982,,Rua Olímpia de Almeida Prado,01231-010,Santa Cecília,São Paulo,-23.5330058,-46.6576919,585000,1,1,0,1,StudioOuKitchenette,33,95494,892829358-773.5938012836642IMG5972.jpg,810,0,0,2024-01-18,-0.0357,,,,,,,
789,,892829389,630000,524023,,Avenida Doutor Arnaldo,01246-000,Pacaembu,São Paulo,-23.5557077,-46.6664652,562000,1,2,0,0,Apartamento,80,98851,892829389-56.47628940797200411242.jpg,1583,0,3,2024-10-04,-0.2105,,,,,,,
789,,892829447,1150000,1659241,,Rua Antonio Aggio,05713-420,Jardim Ampliação,São Paulo,-23.6297693,-46.7294905,1650000,6,6,3,5,Apartamento,450,45313,892829447-880.1973497453614DSC0140.JPG,1393,0,1,2024-11-13,-0.0213,,,,,,,
789,,892829486,750000,692509,,Rua Ventura Ladalardo,05704-140,Jardim Fonte do Morumbi,São Paulo,-23.6280641,-46.718925,750000,1,2,0,2,Apartamento,70,150358,892829486-350.08334164295684DSC3435.jpg,31,0,0,,,,,,,,,
789,,892830048,1280000,1085624,,Rua Guaxupe,30220-320,Serra,Belo Horizonte,-19.9393908,-43.9137358,1280000,3,4,1,3,Apartamento,280,19623,892830048-385.376950716901941302561.JPG,933,0,16,2024-08-21,-0.0254,,,,,,,
789,,892830099,1090000,2413436,,Rua Montes Claros,30310-370,Carmo,Belo Horizonte,-19.9450365,-43.9301802,1100000,3,4,1,2,Apartamento,288,101715,892830099-132.67714832052691300992.JPG,933,0,2,2025-05-12,-0.084,,,,,,,
789,,892830104,2250000,1847052,,Rua Curupá,03355-010,Vila Formosa,São Paulo,-23.5620733,-46.5543206,2820000,4,5,1,4,Casa,280,27052,892830104-821.1080954222252FOTO3908.jpg,508,0,0,2025-06-11,-0.011,,,,,,,
789,,892830209,560000,529408,,Rua Frei Caneca,01307-000,Consolação,São Paulo,-23.5542737,-46.6544599,550000,1,1,0,1,Apartamento,46,151069,892830209-680.0895915396645MG5849.JPG,1945,1,25,2024-10-18,-0.0288,2024-05-20,Canceladas em negociação,490000,,,,
789,,892830223,780000,799649,,Avenida Iraí,04082-001,Indianópolis,São Paulo,-23.611102,-46.6623707,780000,1,2,0,1,Apartamento,80,77369,892830223-524.1177275152728MG0574.jpg,157,0,1,,,,,,,,,
789,,892830268,450000,555477,,Rua Martiniano de Carvalho,01321-001,Bela Vista,São Paulo,-23.5633851,-46.6422088,460000,1,1,0,1,Apartamento,43,153673,892830268-76.419461387461811302681de25.jpg,1408,2,20,2021-10-24,-0.0513,2025-06-06,Canceladas em negociação,420000,,,,
789,,892830515,700000,667715,,Rua Rio de Janeiro,30160-042,Lourdes,Belo Horizonte,-19.9377515,-43.9435285,660000,1,1,1,1,Apartamento,55,19601,892830515-605.2521995786847DSC0008HDR.jpg,1101,0,38,2025-03-22,-0.0278,,,,,,,
789,,892830586,2325000,2142553,,Praça Eugênio Jardim,22061-030,Copacabana,Rio de Janeiro,-22.9764045,-43.1945351,2500000,3,3,1,1,Apartamento,274,101746,892830586-146.775501481900651167.jpg,1732,0,6,2020-11-06,-0.07,,,,,,,
789,,892830673,725000,693243,,Rua Copacabana,02461-000,Santa Teresinha,São Paulo,-23.4926149,-46.6387564,750000,2,3,1,1,Apartamento,90,11574,892830673-603.4875064589634SCM0921.JPG,1695,0,1,2024-02-01,-0.0203,,,,,,,
789,,892830898,2000000,2219298,,Rua Muniz Barreto,22251-090,Botafogo,Rio de Janeiro,-22.947304,-43.1840581,2880000,3,3,2,1,Apartamento,215,39124,892830898-619.0894755722439IMG6765.jpg,1334,0,0,2025-06-03,-0.0123,,,,,,,
789,,892831063,470000,547584,,Avenida Brigadeiro Luís Antônio,01317-001,Bela Vista,São Paulo,-23.5538104,-46.6377451,560000,1,1,0,1,StudioOuKitchenette,40,19687,892831063-84.13684600461046QuintoAndar17.jpg,294,0,0,2025-03-06,-0.0408,,,,,,,
789,,892831204,655000,604363,,Rua Vapabussu,04632-010,Jardim Aeroporto,São Paulo,-23.6313058,-46.6682713,670000,2,1,1,1,Apartamento,51,96763,892831204-942.4704585964352IMG4823.jpg,319,0,0,2025-06-05,-0.0224,,,,,,,
789,,892831362,450000,394016,,Rua Bela Cintra,01415-000,Consolação,São Paulo,-23.5528143,-46.6569369,450000,1,1,0,1,StudioOuKitchenette,27,86074,892831362-8.162622722355795DSC9474.jpg,52,0,1,,,,,,,,,
789,,892831480,1200000,1180934,,Praça Japuba,05453-901,Vila Madalena,São Paulo,-23.540877,-46.7064596,1200000,2,3,0,1,Apartamento,120,150979,892831480-355.09691977030997IMG0804.jpg,124,0,0,2025-03-07,-0.0337,,,,,,,
789,,892831833,336000,283266,,Rua Helena Aparecida Secol,09780-595,Nova Petrópolis,São Bernardo do Campo,-23.7114419,-46.5350207,336000,1,2,0,1,Apartamento,62,143419,892831833-604.8525154218605DSC0002.jpg,80,0,3,,,,,,,,,
789,,892831876,1445000,1486626,,Estrada Carlos Queiroz Telles,05704-150,Jardim Fonte do Morumbi,São Paulo,-23.6299442,-46.721114,1400000,5,4,4,4,Apartamento,225,25301,892831876-3.98477936472152465andar2.jpg,248,0,3,2024-12-03,-0.0302,,,,,,,
789,,892831899,354000,289410,,Rua Laranjeiras,22240-003,Laranjeiras,Rio de Janeiro,-22.9350695,-43.1901143,278893,1,1,0,0,StudioOuKitchenette,24,25638,892831899-985.36050281268492.jpg,144,0,2,,,,,,,,,
789,,892832148,500000,570126,,Avenida Ceci,04065-000,Planalto Paulista,São Paulo,-23.6244264,-46.6481804,500000,2,2,0,1,Apartamento,96,16683,892832148-942.8550228354329MG0065.JPG,1557,0,4,,,,,,,,,
789,,892832224,460000,425018,,Avenida Itaboraí,04135-000,Bosque da Saúde,São Paulo,-23.6082359,-46.6297044,420000,2,2,0,1,Apartamento,61,2378,892832224-967.570395604377IMG5138.jpg,1925,0,7,2020-09-02,-0.0254,,,,,,,
789,,892832270,730000,949955,,Rua Doutor Amando Franco Soares Caiuby,05640-020,Parque Bairro Morumbi,São Paulo,-23.6138331,-46.7402163,720000,4,3,2,2,Apartamento,145,54036,892832270-131.2673192758091411.JPG,1169,0,4,2025-01-21,-0.0331,,,,,,,
789,,892832447,630000,576307,,Rua Francisco Tapajós,04153-000,Vila Santo Estéfano,São Paulo,-23.6261919,-46.6241581,630000,3,3,1,1,Apartamento,108,20830,892832447-709.2739114281057foto1.jpg,39,0,0,,,,,,,,,
789,,892832629,1850000,1689488,,Rua Helena,04552-050,Vila Olímpia,São Paulo,-23.5931107,-46.6859055,2125000,3,2,1,2,Apartamento,98,74379,892832629-609.1947209897354DSC0629.jpg,1044,2,16,2025-05-05,-0.0526,2025-01-17,Canceladas em validação,1600000,,,,
789,,892832703,580000,487270,,Avenida Santo Amaro,04555-001,Brooklin Paulista,São Paulo,-23.6121951,-46.6777227,580000,1,1,0,1,StudioOuKitchenette,33,96305,892832703-266.67775865752765IMG7676.jpg,15,0,0,,,,,,,,,
789,,892832928,350000,345547,,Rua Amparo,09060-100,Vila Valparaíso,Santo André,-23.6695621,-46.545193,350000,1,2,0,1,Apartamento,76,36313,892832928-362.8565975926028DSC0002.jpg,106,0,12,,,,,,,,,
789,,892833118,725000,541437,,Rua Grumixamas,04349-000,Vila Parque Jabaquara,São Paulo,-23.6482493,-46.6434338,461699,2,3,0,1,Apartamento,80,7971,892833118-18.652138777075056MG0195.JPG,1373,0,8,2024-03-15,-0.0373,,,,,,,
789,,892833198,1950000,2381477,,Rua Deputado Laércio Corte,05706-290,Paraíso do Morumbi,São Paulo,-23.62682,-46.724084,1950000,4,4,2,4,Apartamento,380,57006,892833198-316.59126060630894DSC0960.jpg,50,0,0,,,,,,,,,
789,,892833242,480000,443148,,Avenida Vereador João de Luca,04381-001,Jardim Prudência,São Paulo,-23.6552893,-46.6663763,650000,2,2,1,1,Apartamento,60,151010,892833242-729.1422142340463QuintoAndar110620181.jpg,1726,0,37,2023-10-02,-0.0588,,,,,,,
789,,892833354,1230000,1116492,,Rua Fradique Coutinho,05416-012,Pinheiros,São Paulo,-23.5534087,-46.6932455,1300000,2,2,1,4,Apartamento,98,19618,892833354-675.6045834614603ruafradiquecoutinho1692apto121.jpg,321,0,6,2024-10-31,-0.0538,,,,,,,
789,,892833450,609270,718516,,Rua Aureliano Guimarães,05727-160,Vila Andrade,São Paulo,-23.6271024,-46.73677,719270,4,3,3,3,Apartamento,138,6005,892833450-386.6084077298125andar1.jpg,207,0,0,2025-05-30,-0.0394,,,,,,,
789,,892833948,610000,656636,,Rua Tuiti,03312-052,Tatuapé,São Paulo,-23.5291557,-46.5758134,650000,2,3,1,1,Apartamento,78,12449,892833948-320.96316155275207FOTO5244.jpg,1799,0,16,2021-10-05,-0.0446,,,,,,,
789,,892833975,770000,771717,,Rua Mossamedes,03325-060,Vila Santo Estevão,São Paulo,-23.5514088,-46.5558861,770000,2,3,1,2,Apartamento,87,24215,892833975-185.20822385711932IMG2446.JPG,22,0,0,,,,,,,,,
789,,892834133,1450000,1235558,,Rua Guaimbé,03118-020,Mooca,São Paulo,-23.5667526,-46.5951596,1700000,5,3,3,3,Apartamento,150,7510,892834133-473.05343486121586MG3322.JPG,420,0,5,2025-02-21,-0.0881,,,,,,,
789,,892834159,870000,886167,,Rua Latif Fakhouri,04367-010,Vila Santa Catarina,São Paulo,-23.6518187,-46.666453,1225000,3,3,1,2,Apartamento,128,21153,892834159-537.6283471979389QuintoAndar2006201863.jpg,1564,0,4,2025-05-12,-0.0279,,,,,,,
789,,892834293,489000,535383,,Rua Juvenal dos Santos,30380-530,Luxemburgo,Belo Horizonte,-19.949756,-43.9546459,489000,3,3,1,1,Apartamento,119,24433,892834293-169.93572684570947DSC0001.jpg,407,1,5,,,2025-04-22,Canceladas em negociação,415650,,,,
789,,892834524,455000,451676,,Rua Jovina,04363-080,Vila Mascote,São Paulo,-23.6480027,-46.6642573,455000,2,3,0,1,Apartamento,59,20172,892834524-521.8692361521444MG0196.JPG,745,0,3,,,,,,,,,
789,,892834559,440000,394571,,Avenida Engenheiro Heitor Antônio Eiras García,05508-250,Butantã,São Paulo,-23.5739024,-46.7386981,420000,1,2,0,1,Apartamento,53,43224,892834559-954.9375421578378MG4108.JPG,567,0,0,2025-06-12,-0.0222,,,,,,,
789,,892835000,3850000,3373956,,Rua Belterra,04747-140,Santo Amaro,São Paulo,-23.6538607,-46.6928621,4500000,6,4,4,4,Apartamento,317,21837,892835000-581.243155349795IMG1922.jpg,499,0,0,2025-04-11,-0.0351,,,,,,,
789,,892835044,1680000,1346829,,Rua Loefgren,04040-033,Vila Clementino,São Paulo,-23.5990985,-46.6488071,1480000,4,3,2,3,Apartamento,117,3413,892835044-175.694474419381355andar1.jpg,1501,0,25,2024-10-10,-0.0185,,,,,,,
789,,892835089,485000,434273,,Av. Brigadeiro de Luís Antônio,01316-100,Bela Vista ,São Paulo,-23.5548913,-46.6389291,500000,1,1,0,1,Apartamento,39,150420,892835089-813.1685854266943MG9300.JPG,127,0,1,2025-03-13,-0.03,,,,,,,
789,,892835092,980000,999070,,Rua Aureliano Coutinho,01224-020,Vila Buarque,São Paulo,-23.5411085,-46.6531837,1600000,2,3,1,1,Apartamento,96,9749,892835092-525.1388937272986MG9496.JPG,1313,0,11,2024-10-21,-0.02,,,,,,,
789,,892835115,1195000,1032746,,Rua Apiacás,05017-020,Perdizes,São Paulo,-23.5371422,-46.6789527,1390000,2,3,1,2,Apartamento,100,20233,892835115-585.9343350905453Fotografaarquiteturaimoveis360CarolKappaun497.JPG,483,0,12,2024-09-30,-0.0808,,,,,,,
789,,892835246,1470000,1109893,,Rua Senhor do Monte,02407-090,Água Fria,São Paulo,-23.4841629,-46.6235205,1165000,5,3,3,4,Casa,150,321771,892835246-52.41221397799334MG4692.jpg,974,0,0,,,,,,,,,
789,,892835545,910000,680298,,Rua Abdo Ambuba,05725-030,Vila Andrade,São Paulo,-23.6247334,-46.7347879,750000,2,2,1,2,Apartamento,96,20007,892835545-669.0809268512244MG5541.JPG,1466,0,1,2024-01-23,-0.0319,,,,,,,
789,,892835655,315000,353456,,Estrada Coudelaria,13044-380,Vila Ipê,Campinas,-22.9462035,-47.0461297,395000,1,2,0,1,Apartamento,55,25106,892835655-280.906230900941355A001.JPG,738,0,2,2025-04-23,-0.0455,,,,,,,
789,,892835669,585000,624710,,Rua Catumbi,03021-000,Catumbi,São Paulo,-23.5283194,-46.6023377,532900,2,2,1,1,Apartamento,65,57614,892835669-540.5470372193302FOTO6623.jpg,1764,5,24,2025-02-11,-0.0204,2024-11-30,Canceladas em negociação,500000,,,,
789,,892835681,2700000,2120483,,Rua Alice,22071-100,Laranjeiras,Rio de Janeiro,-22.9361716,-43.1906344,2700000,2,7,0,0,Apartamento,469,102155,892835681-35.28141606004309Alice414012.jpg,39,0,0,,,,,,,,,
789,,892836057,485000,578245,,Alameda Campinas,01331-000,Bela Vista,São Paulo,-23.5633367,-46.6505691,530000,1,1,1,1,Apartamento,50,12212,892836057-186.55596892253922MG3490.JPG,458,0,7,2025-06-09,-0.0102,,,,,,,
789,,892836083,650000,691296,,Rua Cardeal Arcoverde,05408-001,Pinheiros,São Paulo,-23.5569981,-46.6807796,550000,1,1,1,1,Apartamento,60,10790,892836083-242.81678324411715DSC0395.jpg,639,0,27,2024-11-11,-0.0263,,,,,,,
789,,892836106,940000,966875,,Rua Costa Aguiar,04203-050,Ipiranga,São Paulo,-23.5841574,-46.6075079,1000000,3,3,1,2,Apartamento,140,78450,892836106-164.2535141925131DSC4283.jpg,1331,0,10,2024-10-31,-0.0211,,,,,,,
789,,892836324,2605000,2946240,,Avenida Lúcio Costa,22795-009,Recreio dos Bandeirantes,Rio de Janeiro,-23.028339,-43.4674369,3080000,5,3,3,2,Apartamento,350,76461,892836324-364.85307050867686IMG3886.JPG,639,0,0,2025-06-11,-0.0095,,,,,,,
789,,892836394,403000,406740,,Rua Balsa,02910-000,Vila Arcádia,São Paulo,-23.5048596,-46.7007755,403000,1,2,0,1,Apartamento,60,20327,892836394-683.6608625626411DSC6163.jpg,30,0,1,,,,,,,,,
789,,892836590,1175000,928491,,Rua Oscar Freire,01426-003,Cerqueira César,São Paulo,-23.5613085,-46.6713828,1300000,1,2,0,1,Apartamento,77,6727,892836590-935.034816087837IMG9842.jpg,588,0,4,2025-05-12,-0.0217,,,,,,,
789,,892836681,520000,421619,,Rua Avanhandava,01306-000,Bela Vista,São Paulo,-23.55014,-46.645381,580000,1,1,0,1,Apartamento,41,9095,892836681-991.4634706546763MG3126.JPG,795,0,1,2025-06-11,-0.0459,,,,,,,
789,,892836804,998900,993975,,Rua João Moura,05412-003,Pinheiros,São Paulo,-23.5539754,-46.6823788,1300000,2,2,1,1,Apartamento,84,20442,892836804-775.1286386841848DSF7917.jpg,427,0,0,2024-11-18,-0.0919,,,,,,,
789,,892836812,1650000,1315383,,Rua João Teixeira da Silva,03348-040,Vila Invernada,São Paulo,-23.5650333,-46.5623732,1590000,3,3,1,3,Apartamento,153,17319,892836812-202.01824704018378MG8195.JPG,1713,0,4,2024-11-19,-0.0262,,,,,,,
789,,892836845,930000,1036155,,Rua João Pimenta,04736-040,Santo Amaro,São Paulo,-23.6342429,-46.6917752,950000,3,3,1,1,Apartamento,116,14495,892836845-721.0315547717813IMG5550.jpg,394,0,5,2025-03-09,-0.0211,,,,,,,
789,,892836919,580000,559184,,Avenida Mazzei,02310-000,Vila Mazzei,São Paulo,-23.4726212,-46.6002933,640000,2,2,1,1,Apartamento,67,33939,892836919-135.37497133445675SCM5306.JPG,773,0,8,2025-02-21,-0.0492,2024-09-26,Canceladas pós Aceite,615000,,,,
789,,892836996,1300000,852352,,Rua João Simões de Souza,05734-140,Parque Reboucas,São Paulo,-23.6232342,-46.7441416,1300000,3,2,2,2,Apartamento,104,22336,892836996-2.3327150122387508DSC1456.jpg,79,0,0,,,,,,,,,
789,,892837067,500000,384322,,Avenida Armando Ferrentini,04103-030,Paraíso,São Paulo,-23.5757478,-46.6358439,520000,1,1,0,1,Apartamento,45,12855,892837067-932.1135262452395andar15.jpg,1588,0,4,2025-06-03,-0.0566,,,,,,,
789,,892837144,410000,351432,,Rua Francisca Miquelina,01316-000,Bela Vista,São Paulo,-23.553648,-46.6394851,350000,1,1,0,0,Apartamento,50,14364,892837144-738.27488679331535a516.jpg,1184,0,3,2025-04-21,-0.0435,,,,,,,
789,,892837164,1060000,881817,,Rua Joaquim Guarani,04707-060,Jardim das Acácias,São Paulo,-23.6265294,-46.6933424,1060000,1,1,1,1,Apartamento,60,555,892837164-922.6843710348058RuaJoaquimGuarani485154B3.jpg,394,0,0,2024-10-30,-0.0246,,,,,,,
789,,892837331,500000,549369,,Rua Girassol,05433-002,Vila Madalena,São Paulo,-23.550663,-46.6922767,500000,1,1,0,1,Apartamento,45,7832,892837331-258.89757498149777IMG4512.jpg,312,0,30,,,,,,,,,
789,,892837813,500000,410370,,Avenida Ultramarino,02441-001,Lauzane Paulista,São Paulo,-23.4726948,-46.6401649,520000,2,2,1,2,Apartamento,57,33690,892837813-73.56321248590581SCM5221.JPG,858,2,15,2024-03-08,-0.0326,2024-10-14,Canceladas em negociação,368000,,,,
789,,892837935,1860000,1881858,,Rua Antônio Pacheco Valente,04710-130,Santo Amaro,São Paulo,-23.6249139,-46.6957298,2000000,4,3,3,2,Apartamento,138,14212,892837935-805.4472859186624DSC2562copy.jpg,52,0,0,2025-06-11,-0.07,,,,,,,
789,,892837949,1400000,1115809,,Rua Tabapuã,04533-014,Itaim Bibi,São Paulo,-23.5847833,-46.6808899,1700000,2,3,1,2,Apartamento,115,6861,892837949-978.7636640650372IMG0884.jpg,601,0,7,2025-01-09,-0.0213,,,,,,,
789,,892838196,430000,464383,,Largo do Arouche,01219-010,República,São Paulo,-23.5409853,-46.646582,500000,1,3,0,0,Apartamento,50,15486,892838196-935.3536386340504MG4634.JPG,186,0,0,2025-06-05,-0.0549,,,,,,,
789,,892838206,870000,796021,,Rua Costa,01304-010,Consolação,São Paulo,-23.553107,-46.6555716,770000,3,2,0,1,Apartamento,86,148714,892838206-645.7901243593597MG4880.JPG,64,0,4,2025-05-16,-0.0842,,,,,,,
789,,892838425,520000,611477,,Rua Jaci,04140-080,Chácara Inglesa,São Paulo,-23.6057457,-46.6280028,600000,1,3,0,2,Apartamento,79,8595,892838425-466.96141639070265QuintoAndar250720181.jpg,1549,0,24,2025-05-26,-0.0189,,,,,,,
789,,892838487,1260000,1301618,,Rua Barão Campos Gerais,05684-000,Real Parque,São Paulo,-23.606534,-46.7046753,1260000,4,4,2,3,Apartamento,198,8034,892838487-113.20803081220576MG7953.jpg,32,0,0,,,,,,,,,
789,,892838491,418000,432655,,Avenida São Luíz,07073-010,Vila Galvão,Guarulhos,-23.4508902,-46.5637054,408000,2,2,1,1,Apartamento,56,18266,892838491-664.3362493774974Edit.4107.jpg,290,1,16,,,2024-12-17,Canceladas em negociação,400000,,,,
789,,892838619,766033,623963,,Rua Alonso Calhamares,03335-080,Jardim Anália Franco,São Paulo,-23.5536984,-46.5672062,642000,1,1,0,1,Apartamento,50,96196,892838619-401.3718563286459MG1391.jpg,1459,3,11,2024-10-27,-0.0988,2023-01-31,Canceladas em negociação,560000,,,,
789,,892838835,540000,447125,,Rua Clóvis Beviláqua,13070-902,Jardim Guanabara,Campinas,-22.8849455,-47.0673179,460000,2,3,1,2,Apartamento,101,60251,892838835-875.0538370256724DSC6103.jpg,1004,0,13,2025-01-17,-0.0388,,,,,,,
789,,892838841,1989000,1947295,,Rua Azevedo Soares,03322-001,Vila Gomes Cardim,São Paulo,-23.5461069,-46.5545084,1750000,4,3,3,3,Apartamento,182,2149,892838841-748.3113788543784MG9382.JPG,1796,0,13,2024-02-15,-0.0005,,,,,,,
789,,892839095,845000,829895,,Rua Martinho da Silva,04124-080,Vila Firmiano Pinto,São Paulo,-23.5982079,-46.6201246,900000,2,3,1,1,Apartamento,96,53865,892839095-51.029228519065214DSC0370.jpg,269,0,3,2024-11-28,-0.0611,,,,,,,
789,,892839130,965000,918430,,Rua Joaquim Guarani,04707-061,Jardim das Acácias,São Paulo,-23.6265294,-46.6933424,780000,1,1,0,1,Apartamento,69,555,892839130-817.6197049070356014.jpg,1591,1,10,2024-07-11,-0.0267,2021-03-05,Canceladas em negociação,700000,,,,
789,,892839262,3800000,3795012,,Rua Luís Molina,04116-280,Jardim Vila Mariana,São Paulo,-23.5904245,-46.6247015,4900000,5,4,4,5,Apartamento,375,107582,892839262-879.793726945046DSC7957.jpg,1976,0,2,2025-06-09,-0.013,,,,,,,
789,,892839780,300000,369567,,Rua Madame Curie,07060-156,Jardim São Ricardo,Guarulhos,-23.4528681,-46.5457761,330000,2,2,1,1,Apartamento,72,102631,892839780-939.4980890408416Edit.4123.jpg,212,0,4,2024-12-18,-0.0164,,,,,,,
789,,892839782,480000,475996,,Rua Ezequiel Freire,02034-000,Santana,São Paulo,-23.505697,-46.623535,532000,1,1,0,1,Apartamento,44,22187,892839782-675.7047945251675QuintoAndarRuaEzequielFreire6282BlocoB01.jpg,882,2,18,2024-08-16,-0.0309,2025-04-04,Canceladas em negociação,400000,,,,
789,,892839832,900000,1061798,,Rua Joaquim da Silveira,22795-510,Recreio dos Bandeirantes,Rio de Janeiro,-23.0200249,-43.4690071,1250000,5,4,3,2,Apartamento,211,63921,892839832-722.4380563963911IMG5756.JPG,923,0,2,2025-06-06,-0.027,,,,,,,
789,,892839916,335000,306276,,Rua Dom Salomão Ferraz,05729-140,Vila Andrade,São Paulo,-23.6357179,-46.7392557,480000,1,2,0,1,Apartamento,55,10207,892839916-363.22074424571025DSC0068.jpg,380,0,0,2025-01-21,-0.0563,,,,,,,
789,,892840289,259000,268892,,Avenida Carlos de Araújo Gobbi,13034-670,Vila São Bento,Campinas,-22.909775,-47.0916566,259000,1,2,0,1,Apartamento,58,20765,892840289-397.36779724896263DSC3490.jpg,282,0,0,,,,,,,,,
789,,892840355,320000,340404,,Rua Barão Guaxupé,30530-160,João Pinheiro,Belo Horizonte,-19.9315203,-44.0011092,290000,2,2,1,1,Apartamento,76,22542,892840355-111.82665016128901MG8539.jpg,500,0,21,,,,,,,,,
789,,892840736,1050000,1108258,,Rua Fonte,09040-270,Jardim Bela Vista,Santo André,-23.666408,-46.5348615,1150000,5,3,3,3,Apartamento,95,21718,892840736-475.3150125542223140736RuadaFonte139SantoAndr4.jpg,595,0,0,2025-06-06,-0.0233,,,,,,,
789,,892840754,150000,159320,,Rua Oswaldo Lussac,22770-360,Pechincha,Rio de Janeiro,-22.9412216,-43.3625914,200000,1,2,0,1,Apartamento,58,71473,892840754-87.11094250351515AYR6337.jpg,1142,0,5,2024-08-20,-0.0385,,,,,,,
789,,892841070,595000,686751,,Avenida José Luiz Ferraz,22790-587,Recreio dos Bandeirantes,Rio de Janeiro,-23.0216135,-43.4870649,615000,3,2,2,1,Apartamento,94,26562,892841070-910.7297641904601APontes2018MG5026.JPG,780,0,4,2024-08-08,-0.0325,,,,,,,
789,,892841132,2125000,1989517,,Avenida Lúcio Costa,22630-010,Barra da Tijuca,Rio de Janeiro,-23.0097589,-43.3299221,2200000,3,2,1,2,Apartamento,112,132796,892841132-612.1810344908798012.jpg,176,0,0,2025-06-06,-0.0116,,,,,,,
789,,892841210,865000,809174,,Rua Alvorada,04550-000,Vila Olímpia,São Paulo,-23.6051626,-46.6758498,869200,2,2,1,1,Apartamento,60,962,892841210-273.5720179052007DSC3345.jpg,1835,1,34,2024-05-24,-0.0132,2024-06-29,Canceladas em negociação,700000,,,,
789,,892841334,590000,600229,,Rua do Símbolo,05713-570,Jardim Ampliação,São Paulo,-23.6239775,-46.7296155,570000,2,3,1,2,Apartamento,127,13120,892841334-760.6212969089087WhatsAppImage20200823at11.22.281.jpeg,1754,3,15,2025-01-10,-0.069,2021-07-18,Canceladas em negociação,350000,,,,
789,,892841341,1200000,927535,,Rua Sousa Reis,05508-250,Butantã,São Paulo,-23.5692744,-46.7283915,1250000,2,3,1,2,Apartamento,110,45284,892841341-594.8915539745932MG0902.JPG,866,0,0,2024-03-27,-0.0233,,,,,,,
789,,892841558,900000,669203,,Avenida Paula Sousa,20271-120,Maracanã,Rio de Janeiro,-22.9156218,-43.2275824,1050000,2,3,1,2,Apartamento,105,47305,892841558-305.91730813837484MVF5098.JPG,295,0,0,2025-01-20,-0.0323,,,,,,,
789,,892841673,188000,152489,,Rua Visconde de Santa Isabel,20560-121,Vila Isabel,Rio de Janeiro,-22.9170176,-43.2599734,269000,1,1,0,0,StudioOuKitchenette,30,25915,892841673-634.3257374912023MVF4823.jpg,1772,0,8,2025-02-11,-0.0595,,,,,,,
789,,892841931,2900000,2710048,,Alameda dos Aicás,04086-001,Indianópolis,São Paulo,-23.6086308,-46.6575601,2440000,5,4,2,4,Apartamento,220,21762,892841931-602.1872146663386DSC1827.jpg,1341,1,15,,,2024-08-24,Canceladas pós Aceite,2600000,,,,
789,,892841932,390000,496132,,Rua José Paulino,13026-515,Vila Lídia,Campinas,-22.9128188,-47.0575102,445000,3,3,1,1,Apartamento,100,43023,892841932-747.1861801020754quintoandar160841.jpg,277,0,3,2025-04-11,-0.008,,,,,,,
789,,892842143,560000,635718,,Rua Cerqueira César,07012-010,Centro,Guarulhos,-23.4714066,-46.529518,770000,4,3,3,2,Apartamento,143,34430,892842143-86.04883191916134Edit.470.jpg,1207,0,13,2024-12-03,-0.1385,,,,,,,
789,,892842318,430000,289478,,Praia Botafogo,22250-040,Botafogo,Rio de Janeiro,-22.9449171,-43.1825521,430000,1,1,0,0,StudioOuKitchenette,19,75294,892842318-80.30534331665518DSC3487.JPG,618,0,1,,,,,,,,,
789,,892842320,1090000,897970,,Rua João Pimenta,04736-900,Santo Amaro,São Paulo,-23.6342429,-46.6917752,1200000,2,3,1,2,Apartamento,114,14495,892842320-445.0256743883575Sala.jpg,730,1,4,2024-04-08,-0.0311,2024-07-27,Canceladas em negociação,890000,,,,
789,,892842441,700000,814887,,Rua Barão Melgaço,05684-030,Real Parque,São Paulo,-23.6083023,-46.7080208,450000,3,3,1,2,Apartamento,130,21067,892842441-207.09447533009694MG0062.JPG,1164,0,20,2022-07-06,-0.0925,,,,,,,
789,,892842559,600000,604946,,Rua Roque Petrella,04581-050,Vila Cordeiro,São Paulo,-23.6216132,-46.6850359,550000,1,1,1,1,Apartamento,35,96905,892842559-141.2286747365449019.jpg,750,1,10,,,2023-06-07,Canceladas em negociação,450000,,,,
789,,892842763,360000,330813,,Rua Edgard Werneck,22763-010,Pechincha,Rio de Janeiro,-22.9399141,-43.3539034,380000,2,2,1,1,CasaCondominio,73,25411,892842763-863.9662684314361IMG7346.jpg,732,0,0,2024-10-11,-0.0282,,,,,,,
789,,892842855,650000,584260,,Avenida Ômega,06472-005,Empresarial 18 do Forte,Barueri,-23.4842793,-46.8490961,650000,1,1,0,1,Apartamento,50,78879,892842855-155.12303660614523DSC0001.jpg,8,0,0,,,,,,,,,
789,,892843053,425000,380834,,Rua Coronel Francisco de Oliveira Simões,05706-280,Paraíso do Morumbi,São Paulo,-23.6251764,-46.725925,450000,2,3,1,2,Apartamento,65,16232,892843053-829.4717147781505MG2247.JPG,1653,0,5,2025-06-04,-0.0556,,,,,,,
789,,892843155,1000000,1102692,,Rua Júpiter,01532-030,Aclimação,São Paulo,-23.5726426,-46.6347399,1200000,3,3,1,2,Apartamento,138,95064,892843155-549.229306034346820180822001075.jpg,1457,0,10,2021-10-15,-0.1667,,,,,,,
789,,892843424,1350000,1393035,,Rua Gabrielle D’annunzio,04576-010,Cidade Monções,São Paulo,-23.6201612,-46.6795937,1500000,3,2,2,3,Apartamento,121,464,892843424-965.4819136043772RuaGabrielleDannunzio296apto1212.jpg,1030,0,8,2025-02-13,-0.0769,,,,,,,
789,,892843508,4850000,4099662,,Rua Queluzita,05578-060,Instituto de Previdência,São Paulo,-23.5749583,-46.7144019,5000000,4,3,3,4,CasaCondominio,313,528153,892843508-401.0158092747466MG1946.JPG,218,0,0,2025-06-09,-0.0051,,,,,,,
789,,892843836,689000,662619,,Rua Espírito Santo,09530-700,Santo Antônio,São Caetano do Sul,-23.6215197,-46.5734981,850000,2,3,1,1,Apartamento,129,22281,892843836-141.56510179289438143836RuaEspritoSanto577SCS1.jpg,480,0,11,2025-01-20,-0.0169,,,,,,,
789,,892843904,370000,352445,,Rua Barão Atibaia,13023-011,Vila Itapura,Campinas,-22.8909954,-47.0604183,370000,1,2,0,1,Apartamento,66,22822,892843904-288.996357633493635A043.jpg,151,0,6,,,,,,,,,
789,,892844116,213000,187734,,Rua Aurora,01209-001,Santa Efigênia,São Paulo,-23.5409232,-46.641607,200000,1,1,0,0,Apartamento,31,55333,892844116-875.9303312562829MG1432.JPG,1123,0,6,2024-11-26,-0.0351,,,,,,,
789,,892844205,410000,452649,,Rua Símbolo,05713-570,Jardim Ampliação,São Paulo,-23.6241967,-46.7288303,500000,2,3,1,2,Apartamento,80,15399,892844205-863.7976602704568MG2371.JPG,389,0,3,2025-01-03,-0.0465,,,,,,,
789,,892844613,1065000,947131,,Rua Manuel da Nóbrega,04001-002,Paraíso,São Paulo,-23.5724409,-46.6525573,1150000,2,1,1,2,Apartamento,65,81248,892844613-473.7993314902599IMG7142.jpg,897,1,17,2024-12-30,-0.0263,2025-04-08,Canceladas em negociação,930000,,,,
789,,892844737,419000,391728,,Rua César Vallejo,05685-000,Real Parque,São Paulo,-23.6067359,-46.701836,340000,1,1,0,1,StudioOuKitchenette,35,22536,892844737-945.9220262693126IMG97424.jpg,1643,0,12,2024-11-25,-0.0244,,,,,,,
789,,892844882,1170000,1180042,,Av. Vice Presidente José Alencar,22775-801,Jacarepaguá,Rio de Janeiro,-22.9661767,-43.387628,1250000,2,3,1,2,Apartamento,115,71475,892844882-244.0585151795418IMG4857.jpg,102,0,3,2025-05-02,-0.025,,,,,,,
789,,892844941,160000,180566,,Rua Ministro Gabriel de Piza,22770-360,Pechincha,Rio de Janeiro,-22.9417999,-43.363018,150000,1,2,0,1,Apartamento,53,95603,892844941-116.75174626259465IMG8145.jpg,1577,1,10,2025-05-15,-0.0303,2021-02-22,Canceladas em negociação,105000,,,,
789,,892844959,1571000,1598765,,Rua São Cipriano,03407-030,Chácara Califórnia,São Paulo,-23.5419781,-46.5516398,1800000,5,5,2,7,Casa,355,200527,892844959-980.5167196510769MG2189.JPG,1552,0,12,2025-06-12,-0.0157,,,,,,,
789,,892845526,900000,980045,,Rua Professor Gastão Bahiana,22071-030,Copacabana,Rio de Janeiro,-22.9776209,-43.1933732,1300000,2,3,0,1,Apartamento,100,21471,892845526-137.58842023934804IMG7157.jpg,841,0,20,2024-04-10,-0.0426,,,,,,,
789,,892845571,380000,352641,,Rua Almaden,05717-200,Vila Andrade,São Paulo,-23.6375532,-46.7356893,400000,1,2,0,2,Apartamento,58,21647,892845571-517.6975718514716MG4293.JPG,696,0,7,2024-08-09,-0.0405,,,,,,,
789,,892845579,1525000,1901986,,Avenida Atlântica,22070-001,Copacabana,Rio de Janeiro,-22.9654924,-43.1747935,1700000,3,4,1,1,Apartamento,140,94401,892845579-347.5771864059982MG0999.jpg,744,0,2,2024-10-10,-0.0161,,,,,,,
789,,892845643,650000,637262,,Rua Sebastião Andrade Bonani,04649-050,Jardim Prudência,São Paulo,-23.6559577,-46.6719231,850000,2,3,1,4,Casa,164,25759,892845643-789.2017196475778IMG5823.JPG,946,1,13,2025-02-26,-0.0093,2025-03-28,Canceladas pós Aceite,600000,,,,
789,,892845931,300000,285340,,Praça Avaí,20775-150,Cachambi,Rio de Janeiro,-22.8928407,-43.2764733,320000,1,2,0,1,Apartamento,80,174287,892845931-355.77646246734605pracaavai.jpg,814,1,13,2024-11-05,-0.0164,2024-02-05,Canceladas em negociação,290000,,,,
789,,892845957,2360000,2419806,,Rua Maestro Tom Jobim,03337-900,Vila Regente Feijo,São Paulo,-23.5566916,-46.565076,2360000,6,6,4,4,Apartamento,420,7218,892845957-892.9638461077722MG3245.JPG,155,0,0,,,,,,,,,
789,,892846102,350000,360539,,Rua Frei Martinho Burnier,31340-290,Paquetá,Belo Horizonte,-19.8693275,-43.9956421,350000,1,2,0,1,Apartamento,52,94582,892846102-913.551936639734RGF5066.jpg,92,0,0,,,,,,,,,
789,,892846268,385000,422239,,Rua Huitacá,04677-020,Jardim da Campina,São Paulo,-23.6656837,-46.6809785,390000,2,3,1,1,Apartamento,82,150344,892846268-58.12350927930898MG594712.JPG,1554,0,5,2025-04-07,-0.1444,,,,,,,
789,,892846513,415000,339806,,Rua Roque de Morais,02721-030,Limão,São Paulo,-23.5023132,-46.6771089,450000,1,2,0,1,Apartamento,78,103413,892846513-73.8810289429035IMG0030.JPG,148,0,0,2025-06-05,-0.0235,,,,,,,
789,,892846553,1440000,676803,,Rua Marambaia,02513-000,Casa Verde,São Paulo,-23.5128825,-46.6565577,700000,1,2,0,0,Casa,180,33569,892846553-693.6205343330194IMG0192.jpg,1641,0,0,2024-05-13,-0.0204,,,,,,,
789,,892846639,350000,404275,,Rua da Consolação,01301-000,Consolação,São Paulo,-23.5472646,-46.6442188,379000,1,1,0,0,Apartamento,42,149937,892846639-349.65776111204085a032.jpg,1512,2,32,2025-04-22,-0.0541,2025-01-11,Canceladas pós Aceite,350000,,,,
789,,892846870,550000,418874,,Rua Tangará,04019-030,Vila Mariana,São Paulo,-23.590265,-46.6456353,550000,1,1,0,0,Apartamento,60,103442,892846870-895.6141271709729IMG2413.JPG,49,0,2,,,,,,,,,
789,,892847053,960000,896425,,Rua Doutor José de Andrade Figueira,05709-010,Vila Suzana,São Paulo,-23.6182738,-46.7422329,850000,4,4,2,3,Apartamento,165,21648,892847053-794.0146328791122MG2662.jpg,1828,0,0,2024-10-17,-0.0208,,,,,,,
789,,892847156,199785,197277,,Rua Dois de Fevereiro,20730-452,Encantado,Rio de Janeiro,-22.8991332,-43.3018181,209785,1,2,0,1,Apartamento,72,46455,892847156-307.331024972914632defev11.jpg,157,0,0,2025-06-05,-0.0244,,,,,,,
789,,892847284,200000,192798,,Avenida Francisco Matarazzo,05001-000,Água Branca,São Paulo,-23.5261698,-46.6754905,190800,1,1,0,0,StudioOuKitchenette,18,94614,892847284-801.2791103548143FotoCarolKappaunArquitetura360Imoveis241.JPG,1574,2,21,2021-06-20,-0.0828,2025-01-16,Canceladas em negociação,185000,,,,
789,,892847304,250000,252530,,Estrada dos Bandeirantes,22780-120,Curicica,Rio de Janeiro,-22.9664211,-43.4089547,215000,1,2,0,0,Apartamento,47,22925,892847304-101.81129667403066AMVIMG0004.JPG,1765,4,18,2025-01-29,-0.0196,2021-08-09,CCV - Cancelado,220000,,,,
789,,892847349,1525000,1412967,,Rua Caraíbas,05020-000,Perdizes,São Paulo,-23.538774,-46.686917,950000,3,4,1,2,Apartamento,117,6016,892847349-904.137044461121MG4099copy.jpg,1956,0,8,2025-06-09,-0.0161,,,,,,,
789,,892847369,1250000,982060,,Avenida Coronel Francisco Júlio César Alfieri,04651-000,Vila São Paulo,São Paulo,-23.6584284,-46.6709558,1300000,2,3,1,2,Apartamento,156,36980,892847369-200.44484404056672Imvel.jpg,815,0,0,2024-05-31,-0.0256,,,,,,,
789,,892847375,645000,782867,,Rua Doutor José de Andrade Figueira,05709-010,Vila Suzana,São Paulo,-23.6172862,-46.7423769,740000,3,3,1,3,Apartamento,109,9748,892847375-455.98361265211616DSC1637.jpg,1321,0,8,2025-03-03,-0.0077,,,,,,,
789,,892847646,1760000,1983993,,Avenida Genaro de Carvalho,22795-510,Recreio dos Bandeirantes,Rio de Janeiro,-23.0206883,-43.476714,1800000,6,4,3,2,Apartamento,380,103525,892847646-731.498477503043520250205104526.jpg,896,0,2,2025-02-07,-0.0737,,,,,,,
789,,892847690,1299000,1491141,,Rua Embaixador Carlos Taylor,22451-360,Gávea,Rio de Janeiro,-22.9765079,-43.2310243,1450000,2,3,1,1,Apartamento,98,78251,892847690-783.9647299276014DSC5334.jpg,428,0,37,2024-06-04,-0.0681,,,,,,,
789,,892847753,990000,752191,,Rua Professor Dorival Dias Minhoto,02435-090,Lauzane Paulista,São Paulo,-23.4811855,-46.6448744,990000,2,3,1,2,Apartamento,75,43039,892847753-375.34698078794895SCM7868.JPG,10,0,0,,,,,,,,,
789,,892848078,1200000,1150722,,Rua Bento de Faria,04151-020,Bosque da Saúde,São Paulo,-23.6239171,-46.6212948,1380000,3,4,2,4,Apartamento,220,87826,892848078-351.9032494583351520190517001021.jpg,1715,0,3,2024-07-31,-0.0769,,,,,,,
789,,892848186,1051989,1070134,,Rua Coronel Octávio Azeredo,02311-110,Vila Mazzei,São Paulo,-23.4688882,-46.6018799,1071989,5,3,2,4,Casa,350,540861,892848186-208.47172399096024IMG1581.jpg,151,0,0,2025-05-29,-0.0187,,,,,,,
789,,892848190,500000,418653,,Avenida Santa Inês,02415-002,Parque Mandaqui,São Paulo,-23.4654011,-46.6343783,435000,2,2,1,1,Apartamento,75,103278,892848190-306.4743270355474520250117135133.jpg,1047,0,2,2024-12-24,-0.0495,,,,,,,
789,,892848211,650000,710672,,Rua Geminiano Gois,22743-670,Freguesia (jacarepaguá),Rio de Janeiro,-22.9338658,-43.3372654,750000,3,4,1,2,Apartamento,110,38571,892848211-634.6645850721839NAY1948.jpg,1102,0,17,2025-04-28,-0.0714,,,,,,,
789,,892848230,425000,439540,,Rua Massaranduba,04304-120,Vila Monte Alegre,São Paulo,-23.6259448,-46.6389335,410000,1,1,1,1,Apartamento,37,152184,892848230-946.4971871853994MG0041.JPG,154,2,15,2025-03-30,-0.0233,2025-01-25,Canceladas em validação,380000,,,,
